{"TONDO I / II": {"name": "TONDO I / II", "city": "CITY OF MANILA", "position": {"lat": 14.608660285454588, "lng": 120.9730417136364}, "color": "#f472b6"}, "BINONDO": {"name": "BINONDO", "city": "CITY OF MANILA", "position": {"lat": 14.602223866363685, "lng": 120.97605610818185}, "color": "#a78bfa"}, "QUIAPO": {"name": "QUIAPO", "city": "CITY OF MANILA", "position": {"lat": 14.602428289000056, "lng": 120.98289426940002}, "color": "#a78bfa"}, "SAN NICOLAS": {"name": "SAN NICOLAS", "city": "CITY OF MANILA", "position": {"lat": 14.597543779300059, "lng": 120.96729167720005}, "color": "#e879f9"}, "SANTA CRUZ": {"name": "SANTA CRUZ", "city": "CITY OF MANILA", "position": {"lat": 14.63448688534215, "lng": 120.98528866807902}, "color": "#f472b6"}, "SAMPALOC": {"name": "SAMPALOC", "city": "CITY OF MANILA", "position": {"lat": 14.597390298636407, "lng": 121.00157719390917}, "color": "#e879f9"}, "SAN MIGUEL": {"name": "SAN MIGUEL", "city": "CITY OF MANILA", "position": {"lat": 14.593882633400039, "lng": 120.98723254560005}, "color": "#22d3ee"}, "ERMITA": {"name": "ERMITA", "city": "CITY OF MANILA", "position": {"lat": 14.586308315800045, "lng": 120.98782746190004}, "color": "#a78bfa"}, "INTRAMUROS": {"name": "INTRAMUROS", "city": "CITY OF MANILA", "position": {"lat": 14.589569132909132, "lng": 120.97735090109096}, "color": "#27272a"}, "MALATE": {"name": "MALATE", "city": "CITY OF MANILA", "position": {"lat": 14.575914118625043, "lng": 120.99700477962506}, "color": "#a3e635"}, "PACO": {"name": "PACO", "city": "CITY OF MANILA", "position": {"lat": 14.576840392666725, "lng": 120.99332552400006}, "color": "#fb7185"}, "PANDACAN": {"name": "PANDACAN", "city": "CITY OF MANILA", "position": {"lat": 14.580349145428613, "lng": 121.00519884357149}, "color": "#27272a"}, "PORT AREA": {"name": "PORT AREA", "city": "CITY OF MANILA", "position": {"lat": 14.5832897980299, "lng": 120.97054196110453}, "color": "#a3e635"}, "SANTA ANA": {"name": "SANTA ANA", "city": "CITY OF MANILA", "position": {"lat": 14.581621097333377, "lng": 121.00457430166672}, "color": "#f472b6"}, "Addition Hills": {"name": "Addition Hills", "city": "CITY OF SAN JUAN", "position": {"lat": 14.59398610170005, "lng": 121.03814724955005}, "color": "#27272a"}, "Bagong Silang": {"name": "Bagong Silang", "city": "CITY OF MANDALUYONG", "position": {"lat": 14.591793559875057, "lng": 121.03166983712507}, "color": "#94a3b8"}, "Barangka Drive": {"name": "Barangka Drive", "city": "CITY OF MANDALUYONG", "position": {"lat": 14.572691020750048, "lng": 121.03772675075005}, "color": "#94a3b8"}, "Barangka Ibaba": {"name": "Barangka Ibaba", "city": "CITY OF MANDALUYONG", "position": {"lat": 14.57039705250005, "lng": 121.03912455000011}, "color": "#a78bfa"}, "Barangka Ilaya": {"name": "Barangka Ilaya", "city": "CITY OF MANDALUYONG", "position": {"lat": 14.572197042111169, "lng": 121.04837528661116}, "color": "#27272a"}, "Barangka Itaas": {"name": "Barangka Itaas", "city": "CITY OF MANDALUYONG", "position": {"lat": 14.57152272966672, "lng": 121.04213805866674}, "color": "#22d3ee"}, "Burol": {"name": "Burol", "city": "CITY OF MANDALUYONG", "position": {"lat": 14.589493040400043, "lng": 121.02775818680007}, "color": "#e879f9"}, "Buayang Bato": {"name": "Buayang Bato", "city": "CITY OF MANDALUYONG", "position": {"lat": 14.570668688750056, "lng": 121.0512160110834}, "color": "#a3e635"}, "Daang Bakal": {"name": "Daang Bakal", "city": "CITY OF MANDALUYONG", "position": {"lat": 14.593299310000047, "lng": 121.02811567000009}, "color": "#94a3b8"}, "Hagdang Bato Itaas": {"name": "Hagdang Bato Itaas", "city": "CITY OF MANDALUYONG", "position": {"lat": 14.58851269208339, "lng": 121.03076492100006}, "color": "#e879f9"}, "Hagdang Bato Libis": {"name": "Hagdang Bato Libis", "city": "CITY OF MANDALUYONG", "position": {"lat": 14.588809431642902, "lng": 121.03426107557148}, "color": "#fb7185"}, "Harapin Ang Bukas": {"name": "Harapin Ang Bukas", "city": "CITY OF MANDALUYONG", "position": {"lat": 14.590952004500044, "lng": 121.02778335350008}, "color": "#94a3b8"}, "Highway Hills": {"name": "Highway Hills", "city": "CITY OF MANDALUYONG", "position": {"lat": 14.576873630925977, "lng": 121.05059154896307}, "color": "#94a3b8"}, "Hulo": {"name": "Hulo", "city": "CITY OF MANDALUYONG", "position": {"lat": 14.571782546416722, "lng": 121.03163036225006}, "color": "#a78bfa"}, "Mabini-J. Rizal": {"name": "Mabini-J. Rizal", "city": "CITY OF MANDALUYONG", "position": {"lat": 14.584819742928621, "lng": 121.02211854521435}, "color": "#a78bfa"}, "Malamig": {"name": "Malamig", "city": "CITY OF MANDALUYONG", "position": {"lat": 14.57498812460005, "lng": 121.04438552320006}, "color": "#22d3ee"}, "Mauway": {"name": "Mauway", "city": "CITY OF MANDALUYONG", "position": {"lat": 14.580958756789519, "lng": 121.04349341078954}, "color": "#fb7185"}, "Namayan": {"name": "Namayan", "city": "CITY OF MANDALUYONG", "position": {"lat": 14.580729711866718, "lng": 121.02188811873341}, "color": "#94a3b8"}, "New Za\u00f1iga": {"name": "New Za\u00f1iga", "city": "CITY OF MANDALUYONG", "position": {"lat": 14.584279768900046, "lng": 121.02909714680008}, "color": "#27272a"}, "Old Za\u00f1iga": {"name": "Old Za\u00f1iga", "city": "CITY OF MANDALUYONG", "position": {"lat": 14.582190444846207, "lng": 121.02507003184624}, "color": "#a3e635"}, "Pag-asa": {"name": "Pag-asa", "city": "CITY OF MANDALUYONG", "position": {"lat": 14.589674668857185, "lng": 121.02515607628577}, "color": "#a3e635"}, "Plainview": {"name": "Plainview", "city": "CITY OF MANDALUYONG", "position": {"lat": 14.576236968250043, "lng": 121.03564191575009}, "color": "#a3e635"}, "Pleasant Hills": {"name": "Pleasant Hills", "city": "CITY OF MANDALUYONG", "position": {"lat": 14.5877015974546, "lng": 121.04210958100008}, "color": "#27272a"}, "Poblacion": {"name": "Poblacion", "city": "PATEROS", "position": {"lat": 14.544933466166697, "lng": 121.06689368050006}, "color": "#27272a"}, "San Jose": {"name": "San Jose", "city": "QUEZON CITY", "position": {"lat": 14.639767153300056, "lng": 120.99367926650007}, "color": "#a78bfa"}, "Vergara": {"name": "Vergara", "city": "CITY OF MANDALUYONG", "position": {"lat": 14.577367427500043, "lng": 121.02537320812509}, "color": "#fb7185"}, "Wack-wack Greenhills": {"name": "Wack-wack Greenhills", "city": "CITY OF MANDALUYONG", "position": {"lat": 14.591231827545506, "lng": 121.05283035163644}, "color": "#f472b6"}, "Barangka": {"name": "Barangka", "city": "CITY OF MARIKINA", "position": {"lat": 14.637386866545501, "lng": 121.0835656183637}, "color": "#27272a"}, "Calumpang": {"name": "Calumpang", "city": "CITY OF MARIKINA", "position": {"lat": 14.624712697350049, "lng": 121.08844280245007}, "color": "#94a3b8"}, "Concepcion Uno": {"name": "Concepcion Uno", "city": "CITY OF MARIKINA", "position": {"lat": 14.653973659400048, "lng": 121.10571824652507}, "color": "#22d3ee"}, "Jesus De La Pe\u00f1a": {"name": "Jesus De La Pe\u00f1a", "city": "CITY OF MARIKINA", "position": {"lat": 14.633426903789523, "lng": 121.09093788831586}, "color": "#f472b6"}, "Malanday": {"name": "Malanday", "city": "CITY OF VALENZUELA", "position": {"lat": 14.722583972342909, "lng": 120.95319585445722}, "color": "#a78bfa"}, "Nangka": {"name": "Nangka", "city": "CITY OF MARIKINA", "position": {"lat": 14.669871646827634, "lng": 121.11082695779317}, "color": "#a3e635"}, "Parang": {"name": "Parang", "city": "CITY OF MARIKINA", "position": {"lat": 14.661024121785761, "lng": 121.11383295950006}, "color": "#27272a"}, "San Roque": {"name": "San Roque", "city": "PATEROS", "position": {"lat": 14.542391939368468, "lng": 121.06928913142114}, "color": "#22d3ee"}, "Santa Elena (Pob.)": {"name": "Santa Elena (Pob.)", "city": "CITY OF MARIKINA", "position": {"lat": 14.631794839818234, "lng": 121.10051660181824}, "color": "#22d3ee"}, "Santo Ni\u00f1o": {"name": "Santo Ni\u00f1o", "city": "CITY OF PARA\u00d1AQUE", "position": {"lat": 14.502921321448323, "lng": 121.00210393929319}, "color": "#a78bfa"}, "Ta\u00f1ong": {"name": "Ta\u00f1ong", "city": "CITY OF MARIKINA", "position": {"lat": 14.630830727222271, "lng": 121.08731039211119}, "color": "#a78bfa"}, "Concepcion Dos": {"name": "Concepcion Dos", "city": "CITY OF MARIKINA", "position": {"lat": 14.640106143903273, "lng": 121.12049968551618}, "color": "#22d3ee"}, "Marikina Heights (Concepcion)": {"name": "Marikina Heights (Concepcion)", "city": "CITY OF MARIKINA", "position": {"lat": 14.650452020433384, "lng": 121.12062971120002}, "color": "#a78bfa"}, "Industrial Valley": {"name": "Industrial Valley", "city": "CITY OF MARIKINA", "position": {"lat": 14.625521982750048, "lng": 121.07845543818755}, "color": "#e879f9"}, "Fortune": {"name": "Fortune", "city": "CITY OF MARIKINA", "position": {"lat": 14.660426187535764, "lng": 121.12716604457148}, "color": "#94a3b8"}, "Tumana": {"name": "Tumana", "city": "CITY OF MARIKINA", "position": {"lat": 14.658929806000055, "lng": 121.0975235088183}, "color": "#27272a"}, "Bagong Ilog": {"name": "Bagong Ilog", "city": "CITY OF PASIG", "position": {"lat": 14.566594492000053, "lng": 121.06936812435004}, "color": "#94a3b8"}, "Bagong Katipunan": {"name": "Bagong Katipunan", "city": "CITY OF PASIG", "position": {"lat": 14.558473935400036, "lng": 121.07511922440008}, "color": "#a78bfa"}, "Bambang": {"name": "Bambang", "city": "TAGUIG CITY", "position": {"lat": 14.524441715187546, "lng": 121.06849037356255}, "color": "#f472b6"}, "Buting": {"name": "Buting", "city": "CITY OF PASIG", "position": {"lat": 14.554467842833375, "lng": 121.06875964775008}, "color": "#a3e635"}, "Caniogan": {"name": "Caniogan", "city": "CITY OF PASIG", "position": {"lat": 14.570829969823581, "lng": 121.08022911805892}, "color": "#e879f9"}, "Dela Paz": {"name": "Dela Paz", "city": "CITY OF PASIG", "position": {"lat": 14.61262188305268, "lng": 121.09848675957902}, "color": "#27272a"}, "Kalawaan": {"name": "Kalawaan", "city": "CITY OF PASIG", "position": {"lat": 14.550629374555605, "lng": 121.0862100623334}, "color": "#22d3ee"}, "Kapasigan": {"name": "Kapasigan", "city": "CITY OF PASIG", "position": {"lat": 14.563051190333377, "lng": 121.07569170922231}, "color": "#f472b6"}, "Kapitolyo": {"name": "Kapitolyo", "city": "CITY OF PASIG", "position": {"lat": 14.571024931923118, "lng": 121.05898764907698}, "color": "#94a3b8"}, "Malinao": {"name": "Malinao", "city": "CITY OF PASIG", "position": {"lat": 14.558203411642902, "lng": 121.07933318142864}, "color": "#e879f9"}, "Manggahan": {"name": "Manggahan", "city": "CITY OF PASIG", "position": {"lat": 14.60210576629793, "lng": 121.09306219293622}, "color": "#94a3b8"}, "Maybunga": {"name": "Maybunga", "city": "CITY OF PASIG", "position": {"lat": 14.575527717454598, "lng": 121.09105823127283}, "color": "#22d3ee"}, "Oranbo": {"name": "Oranbo", "city": "CITY OF PASIG", "position": {"lat": 14.576261018250051, "lng": 121.06639119900007}, "color": "#a78bfa"}, "Palatiw": {"name": "Palatiw", "city": "CITY OF PASIG", "position": {"lat": 14.56337122850005, "lng": 121.08544140821435}, "color": "#a3e635"}, "Pinagbuhatan": {"name": "Pinagbuhatan", "city": "CITY OF PASIG", "position": {"lat": 14.549828819166713, "lng": 121.09737687419056}, "color": "#94a3b8"}, "Pineda": {"name": "Pineda", "city": "CITY OF PASIG", "position": {"lat": 14.566240754750051, "lng": 121.05902873231253}, "color": "#e879f9"}, "Rosario": {"name": "Rosario", "city": "CITY OF PASIG", "position": {"lat": 14.591367822176522, "lng": 121.09630782432362}, "color": "#22d3ee"}, "Sagad": {"name": "Sagad", "city": "CITY OF PASIG", "position": {"lat": 14.565247280800047, "lng": 121.07892250810009}, "color": "#a3e635"}, "San Antonio": {"name": "San Antonio", "city": "CITY OF PARA\u00d1AQUE", "position": {"lat": 14.466389928157195, "lng": 121.0308679561429}, "color": "#e879f9"}, "San Joaquin": {"name": "San Joaquin", "city": "CITY OF PASIG", "position": {"lat": 14.551128259176517, "lng": 121.07624927617653}, "color": "#a3e635"}, "San Miguel": {"name": "San Miguel", "city": "TAGUIG CITY", "position": {"lat": 14.51866747300005, "lng": 121.0701338205001}, "color": "#94a3b8"}, "San Nicolas (Pob.)": {"name": "San Nicolas (Pob.)", "city": "CITY OF PASIG", "position": {"lat": 14.56152520394122, "lng": 121.07959139205889}, "color": "#94a3b8"}, "Santa Cruz": {"name": "Santa Cruz", "city": "CITY OF MAKATI", "position": {"lat": 14.566677513700046, "lng": 121.01759794280005}, "color": "#a3e635"}, "Santa Rosa": {"name": "Santa Rosa", "city": "CITY OF PASIG", "position": {"lat": 14.558242278555598, "lng": 121.07027947477783}, "color": "#94a3b8"}, "Santo Tomas": {"name": "Santo Tomas", "city": "CITY OF PASIG", "position": {"lat": 14.56306913308338, "lng": 121.08141150675006}, "color": "#a3e635"}, "Santolan": {"name": "Santolan", "city": "CITY OF MALABON", "position": {"lat": 14.68965811992312, "lng": 120.95819851053852}, "color": "#27272a"}, "Sumilang": {"name": "Sumilang", "city": "CITY OF PASIG", "position": {"lat": 14.55721787312504, "lng": 121.07353541950005}, "color": "#27272a"}, "Ugong": {"name": "Ugong", "city": "CITY OF VALENZUELA", "position": {"lat": 14.697285918967259, "lng": 121.0139281626722}, "color": "#e879f9"}, "Santa Lucia": {"name": "Santa Lucia", "city": "CITY OF SAN JUAN", "position": {"lat": 14.598248325800057, "lng": 121.03436457706674}, "color": "#27272a"}, "Alicia": {"name": "Alicia", "city": "QUEZON CITY", "position": {"lat": 14.661519342533381, "lng": 121.02477013000006}, "color": "#27272a"}, "Amihan": {"name": "Amihan", "city": "QUEZON CITY", "position": {"lat": 14.632484872727321, "lng": 121.0682698263637}, "color": "#fb7185"}, "Apolonio Samson": {"name": "Apolonio Samson", "city": "QUEZON CITY", "position": {"lat": 14.655255384744732, "lng": 121.00917165763832}, "color": "#f472b6"}, "Aurora": {"name": "Aurora", "city": "QUEZON CITY", "position": {"lat": 14.615657576363695, "lng": 121.00920174109098}, "color": "#fb7185"}, "Baesa": {"name": "Baesa", "city": "QUEZON CITY", "position": {"lat": 14.669172112750056, "lng": 121.01206240954552}, "color": "#fb7185"}, "Bagbag": {"name": "Bagbag", "city": "QUEZON CITY", "position": {"lat": 14.697318459597064, "lng": 121.03159209210456}, "color": "#94a3b8"}, "Bagumbuhay": {"name": "Bagumbuhay", "city": "QUEZON CITY", "position": {"lat": 14.624940961466718, "lng": 121.06521414020007}, "color": "#22d3ee"}, "Bagong Lipunan Ng Crame": {"name": "Bagong Lipunan Ng Crame", "city": "QUEZON CITY", "position": {"lat": 14.611491050437554, "lng": 121.04946137675005}, "color": "#f472b6"}, "Bagong Pag-asa": {"name": "Bagong Pag-asa", "city": "QUEZON CITY", "position": {"lat": 14.657032428894787, "lng": 121.03584458794742}, "color": "#a78bfa"}, "Bagong Silangan": {"name": "Bagong Silangan", "city": "QUEZON CITY", "position": {"lat": 14.711252228720046, "lng": 121.11495479739004}, "color": "#f472b6"}, "Bagumbayan": {"name": "Bagumbayan", "city": "TAGUIG CITY", "position": {"lat": 14.478638747087007, "lng": 121.05588834756527}, "color": "#e879f9"}, "Bahay Toro": {"name": "Bahay Toro", "city": "QUEZON CITY", "position": {"lat": 14.667155837146717, "lng": 121.02917297672}, "color": "#a3e635"}, "Balingasa": {"name": "Balingasa", "city": "QUEZON CITY", "position": {"lat": 14.650090931527835, "lng": 121.00271110430562}, "color": "#a3e635"}, "Bayanihan": {"name": "Bayanihan", "city": "QUEZON CITY", "position": {"lat": 14.615677119888947, "lng": 121.06982033255564}, "color": "#e879f9"}, "Blue Ridge A": {"name": "Blue Ridge A", "city": "QUEZON CITY", "position": {"lat": 14.618658115266715, "lng": 121.07372559080005}, "color": "#e879f9"}, "Blue Ridge B": {"name": "Blue Ridge B", "city": "QUEZON CITY", "position": {"lat": 14.617887549416722, "lng": 121.07578127475007}, "color": "#fb7185"}, "Botocan": {"name": "Botocan", "city": "QUEZON CITY", "position": {"lat": 14.638487271411812, "lng": 121.06412813817654}, "color": "#fb7185"}, "Bungad": {"name": "Bungad", "city": "QUEZON CITY", "position": {"lat": 14.651620952307745, "lng": 121.02640619207698}, "color": "#94a3b8"}, "Camp Aguinaldo": {"name": "Camp Aguinaldo", "city": "QUEZON CITY", "position": {"lat": 14.60661395057148, "lng": 121.06412919171437}, "color": "#22d3ee"}, "Central": {"name": "Central", "city": "QUEZON CITY", "position": {"lat": 14.646618418606113, "lng": 121.0496850030001}, "color": "#fb7185"}, "Claro": {"name": "Claro", "city": "QUEZON CITY", "position": {"lat": 14.63168032970005, "lng": 121.06455877810006}, "color": "#22d3ee"}, "Commonwealth": {"name": "Commonwealth", "city": "QUEZON CITY", "position": {"lat": 14.69993756006672, "lng": 121.08567982086672}, "color": "#a3e635"}, "New Era (Constitution Hills)": {"name": "New Era (Constitution Hills)", "city": "QUEZON CITY", "position": {"lat": 14.664579174720052, "lng": 121.05957845780006}, "color": "#27272a"}, "Kristong Hari": {"name": "Kristong Hari", "city": "QUEZON CITY", "position": {"lat": 14.625332918380996, "lng": 121.0315996333334}, "color": "#a78bfa"}, "Culiat": {"name": "Culiat", "city": "QUEZON CITY", "position": {"lat": 14.665603879389879, "lng": 121.0536484974238}, "color": "#27272a"}, "Damar": {"name": "Damar", "city": "QUEZON CITY", "position": {"lat": 14.647164447700046, "lng": 121.00116818480005}, "color": "#a78bfa"}, "Damayan": {"name": "Damayan", "city": "QUEZON CITY", "position": {"lat": 14.637365944272771, "lng": 121.01408285881824}, "color": "#a3e635"}, "Damayang Lagi": {"name": "Damayang Lagi", "city": "QUEZON CITY", "position": {"lat": 14.61432661840005, "lng": 121.02336547888004}, "color": "#a78bfa"}, "Del Monte": {"name": "Del Monte", "city": "QUEZON CITY", "position": {"lat": 14.64388639922227, "lng": 121.01406420633342}, "color": "#a78bfa"}, "Dioquino Zobel": {"name": "Dioquino Zobel", "city": "QUEZON CITY", "position": {"lat": 14.620003772428626, "lng": 121.06493713200004}, "color": "#94a3b8"}, "Do\u00f1a Imelda": {"name": "Do\u00f1a Imelda", "city": "QUEZON CITY", "position": {"lat": 14.611833506709727, "lng": 121.01757035300005}, "color": "#a3e635"}, "Do\u00f1a Josefa": {"name": "Do\u00f1a Josefa", "city": "QUEZON CITY", "position": {"lat": 14.619661460285768, "lng": 121.00719175971436}, "color": "#fb7185"}, "Don Manuel": {"name": "Don Manuel", "city": "QUEZON CITY", "position": {"lat": 14.615709171555604, "lng": 121.00557504533339}, "color": "#f472b6"}, "Duyan-duyan": {"name": "Duyan-duyan", "city": "QUEZON CITY", "position": {"lat": 14.630132731250043, "lng": 121.06797935516674}, "color": "#e879f9"}, "E. Rodriguez": {"name": "E. Rodriguez", "city": "QUEZON CITY", "position": {"lat": 14.628229475166721, "lng": 121.05230965688897}, "color": "#a78bfa"}, "East Kamias": {"name": "East Kamias", "city": "QUEZON CITY", "position": {"lat": 14.631764886866714, "lng": 121.05625910053338}, "color": "#a78bfa"}, "Escopa I": {"name": "Escopa I", "city": "QUEZON CITY", "position": {"lat": 14.624355851333377, "lng": 121.07356637033342}, "color": "#27272a"}, "Escopa II": {"name": "Escopa II", "city": "QUEZON CITY", "position": {"lat": 14.624249333555598, "lng": 121.07442385922228}, "color": "#a3e635"}, "Escopa III": {"name": "Escopa III", "city": "QUEZON CITY", "position": {"lat": 14.626780659000056, "lng": 121.07352522411118}, "color": "#94a3b8"}, "Escopa IV": {"name": "Escopa IV", "city": "QUEZON CITY", "position": {"lat": 14.625537342000053, "lng": 121.07443646000004}, "color": "#fb7185"}, "Fairview": {"name": "Fairview", "city": "QUEZON CITY", "position": {"lat": 14.703882355975049, "lng": 121.06916554927511}, "color": "#e879f9"}, "N.S. Amoranto (Gintong Silahis)": {"name": "N.S. Amoranto (Gintong Silahis)", "city": "QUEZON CITY", "position": {"lat": 14.633532703375046, "lng": 120.99379220600005}, "color": "#f472b6"}, "Gulod": {"name": "Gulod", "city": "QUEZON CITY", "position": {"lat": 14.711753471642904, "lng": 121.04113181428573}, "color": "#a3e635"}, "Horseshoe": {"name": "Horseshoe", "city": "QUEZON CITY", "position": {"lat": 14.6125017858572, "lng": 121.04186397380961}, "color": "#e879f9"}, "Immaculate Concepcion": {"name": "Immaculate Concepcion", "city": "QUEZON CITY", "position": {"lat": 14.622596305250049, "lng": 121.04367814106257}, "color": "#94a3b8"}, "Kaligayahan": {"name": "Kaligayahan", "city": "QUEZON CITY", "position": {"lat": 14.733185173000049, "lng": 121.04344373315912}, "color": "#a3e635"}, "Kalusugan": {"name": "Kalusugan", "city": "QUEZON CITY", "position": {"lat": 14.623611406666715, "lng": 121.02067251166673}, "color": "#f472b6"}, "Kamuning": {"name": "Kamuning", "city": "QUEZON CITY", "position": {"lat": 14.627631483500048, "lng": 121.04114185264292}, "color": "#a3e635"}, "Katipunan": {"name": "Katipunan", "city": "QUEZON CITY", "position": {"lat": 14.655994747300047, "lng": 121.01708585500005}, "color": "#f472b6"}, "Kaunlaran": {"name": "Kaunlaran", "city": "QUEZON CITY", "position": {"lat": 14.61597172921058, "lng": 121.0441952083685}, "color": "#27272a"}, "Krus Na Ligas": {"name": "Krus Na Ligas", "city": "QUEZON CITY", "position": {"lat": 14.643103045538506, "lng": 121.06279657284621}, "color": "#27272a"}, "Laging Handa": {"name": "Laging Handa", "city": "QUEZON CITY", "position": {"lat": 14.633245197333395, "lng": 121.03097036583341}, "color": "#94a3b8"}, "Libis": {"name": "Libis", "city": "QUEZON CITY", "position": {"lat": 14.616333539500053, "lng": 121.07713362407146}, "color": "#fb7185"}, "Lourdes": {"name": "Lourdes", "city": "QUEZON CITY", "position": {"lat": 14.62597846980005, "lng": 121.00201189420007}, "color": "#e879f9"}, "Loyola Heights": {"name": "Loyola Heights", "city": "QUEZON CITY", "position": {"lat": 14.63829322264449, "lng": 121.07452509217786}, "color": "#a3e635"}, "Maharlika": {"name": "Maharlika", "city": "QUEZON CITY", "position": {"lat": 14.633688065444492, "lng": 120.99688623500005}, "color": "#e879f9"}, "Malaya": {"name": "Malaya", "city": "QUEZON CITY", "position": {"lat": 14.636071398454595, "lng": 121.05573968018193}, "color": "#fb7185"}, "Manresa": {"name": "Manresa", "city": "QUEZON CITY", "position": {"lat": 14.642565297466714, "lng": 121.00289634900007}, "color": "#22d3ee"}, "Mangga": {"name": "Mangga", "city": "QUEZON CITY", "position": {"lat": 14.625554475428626, "lng": 121.06246068014295}, "color": "#22d3ee"}, "Mariana": {"name": "Mariana", "city": "QUEZON CITY", "position": {"lat": 14.618641710947415, "lng": 121.03376679357899}, "color": "#fb7185"}, "Mariblo": {"name": "Mariblo", "city": "QUEZON CITY", "position": {"lat": 14.63450486325005, "lng": 121.01647485956256}, "color": "#22d3ee"}, "Marilag": {"name": "Marilag", "city": "QUEZON CITY", "position": {"lat": 14.625064811647102, "lng": 121.07030491817653}, "color": "#27272a"}, "Masagana": {"name": "Masagana", "city": "QUEZON CITY", "position": {"lat": 14.618697982818235, "lng": 121.06681652790913}, "color": "#f472b6"}, "Masambong": {"name": "Masambong", "city": "QUEZON CITY", "position": {"lat": 14.642817621933382, "lng": 121.00904695753339}, "color": "#22d3ee"}, "Santo Domingo (Matalahib)": {"name": "Santo Domingo (Matalahib)", "city": "QUEZON CITY", "position": {"lat": 14.630773465923124, "lng": 121.00907699600008}, "color": "#a3e635"}, "Matandang Balara": {"name": "Matandang Balara", "city": "QUEZON CITY", "position": {"lat": 14.670529801870417, "lng": 121.08398685948157}, "color": "#fb7185"}, "Milagrosa": {"name": "Milagrosa", "city": "QUEZON CITY", "position": {"lat": 14.620858295857188, "lng": 121.06916473771435}, "color": "#fb7185"}, "Nagkaisang Nayon": {"name": "Nagkaisang Nayon", "city": "QUEZON CITY", "position": {"lat": 14.717587270125055, "lng": 121.02491489503757}, "color": "#fb7185"}, "Nayong Kanluran": {"name": "Nayong Kanluran", "city": "QUEZON CITY", "position": {"lat": 14.640256888250056, "lng": 121.02468889866672}, "color": "#f472b6"}, "Novaliches Proper": {"name": "Novaliches Proper", "city": "QUEZON CITY", "position": {"lat": 14.721092254642912, "lng": 121.03745144850004}, "color": "#fb7185"}, "Obrero": {"name": "Obrero", "city": "QUEZON CITY", "position": {"lat": 14.62753735409096, "lng": 121.03083140463642}, "color": "#94a3b8"}, "Old Capitol Site": {"name": "Old Capitol Site", "city": "QUEZON CITY", "position": {"lat": 14.650698675200049, "lng": 121.05323769140004}, "color": "#fb7185"}, "Paang Bundok": {"name": "Paang Bundok", "city": "QUEZON CITY", "position": {"lat": 14.62814362100005, "lng": 120.99230391900005}, "color": "#a3e635"}, "Pag-ibig Sa Nayon": {"name": "Pag-ibig Sa Nayon", "city": "QUEZON CITY", "position": {"lat": 14.647303925238148, "lng": 120.99760761080957}, "color": "#e879f9"}, "Paligsahan": {"name": "Paligsahan", "city": "QUEZON CITY", "position": {"lat": 14.63311249140006, "lng": 121.02392913860008}, "color": "#e879f9"}, "Paltok": {"name": "Paltok", "city": "QUEZON CITY", "position": {"lat": 14.64234090366672, "lng": 121.02342529211117}, "color": "#94a3b8"}, "Pansol": {"name": "Pansol", "city": "QUEZON CITY", "position": {"lat": 14.654755668410766, "lng": 121.08381312851789}, "color": "#fb7185"}, "Paraiso": {"name": "Paraiso", "city": "QUEZON CITY", "position": {"lat": 14.637881394083385, "lng": 121.0179218430834}, "color": "#e879f9"}, "Pasong Putik Proper (Pasong Putik)": {"name": "Pasong Putik Proper (Pasong Putik)", "city": "QUEZON CITY", "position": {"lat": 14.742272679850872, "lng": 121.09761013080119}, "color": "#a78bfa"}, "Pasong Tamo": {"name": "Pasong Tamo", "city": "QUEZON CITY", "position": {"lat": 14.680308966738153, "lng": 121.05551789942862}, "color": "#a78bfa"}, "Phil-Am": {"name": "Phil-Am", "city": "QUEZON CITY", "position": {"lat": 14.647385272000056, "lng": 121.03133751116677}, "color": "#94a3b8"}, "Pinyahan": {"name": "Pinyahan", "city": "QUEZON CITY", "position": {"lat": 14.639052490041715, "lng": 121.04934791666676}, "color": "#f472b6"}, "Pinagkaisahan": {"name": "Pinagkaisahan", "city": "CITY OF MAKATI", "position": {"lat": 14.557722473000053, "lng": 121.04092366314293}, "color": "#a3e635"}, "Project 6": {"name": "Project 6", "city": "QUEZON CITY", "position": {"lat": 14.658063826640053, "lng": 121.04071028336004}, "color": "#94a3b8"}, "Quirino 2-A": {"name": "Quirino 2-A", "city": "QUEZON CITY", "position": {"lat": 14.629589730933379, "lng": 121.05938479106675}, "color": "#fb7185"}, "Quirino 2-B": {"name": "Quirino 2-B", "city": "QUEZON CITY", "position": {"lat": 14.631950128250054, "lng": 121.06202677600005}, "color": "#27272a"}, "Quirino 2-C": {"name": "Quirino 2-C", "city": "QUEZON CITY", "position": {"lat": 14.635255846111155, "lng": 121.06281267800007}, "color": "#a78bfa"}, "Quirino 3-A": {"name": "Quirino 3-A", "city": "QUEZON CITY", "position": {"lat": 14.628856511500054, "lng": 121.06338949512505}, "color": "#e879f9"}, "Ramon Magsaysay": {"name": "Ramon Magsaysay", "city": "QUEZON CITY", "position": {"lat": 14.660078164157943, "lng": 121.02321775552635}, "color": "#a78bfa"}, "Roxas": {"name": "Roxas", "city": "QUEZON CITY", "position": {"lat": 14.627159486800048, "lng": 121.02190764415002}, "color": "#a78bfa"}, "Sacred Heart": {"name": "Sacred Heart", "city": "QUEZON CITY", "position": {"lat": 14.631252843833371, "lng": 121.03977789566672}, "color": "#f472b6"}, "Saint Ignatius": {"name": "Saint Ignatius", "city": "QUEZON CITY", "position": {"lat": 14.614023227000049, "lng": 121.07315926936371}, "color": "#a3e635"}, "Saint Peter": {"name": "Saint Peter", "city": "QUEZON CITY", "position": {"lat": 14.63381243585719, "lng": 121.0003994448572}, "color": "#94a3b8"}, "Salvacion": {"name": "Salvacion", "city": "QUEZON CITY", "position": {"lat": 14.627544915000044, "lng": 120.9948262235715}, "color": "#a3e635"}, "San Agustin": {"name": "San Agustin", "city": "CITY OF MALABON", "position": {"lat": 14.660976507000049, "lng": 120.95212500466675}, "color": "#f472b6"}, "San Bartolome": {"name": "San Bartolome", "city": "QUEZON CITY", "position": {"lat": 14.706017306421101, "lng": 121.03131229102641}, "color": "#a78bfa"}, "San Isidro": {"name": "San Isidro", "city": "CITY OF PARA\u00d1AQUE", "position": {"lat": 14.467427119968814, "lng": 121.01139390981255}, "color": "#a78bfa"}, "San Isidro Labrador": {"name": "San Isidro Labrador", "city": "QUEZON CITY", "position": {"lat": 14.62367901180006, "lng": 120.99677121420004}, "color": "#a3e635"}, "San Martin De Porres": {"name": "San Martin De Porres", "city": "CITY OF PARA\u00d1AQUE", "position": {"lat": 14.481411052313767, "lng": 121.04552117715697}, "color": "#f472b6"}, "San Vicente": {"name": "San Vicente", "city": "QUEZON CITY", "position": {"lat": 14.652737687153905, "lng": 121.05635133369239}, "color": "#27272a"}, "Santa Monica": {"name": "Santa Monica", "city": "QUEZON CITY", "position": {"lat": 14.718200509634663, "lng": 121.04588915634619}, "color": "#fb7185"}, "Santa Teresita": {"name": "Santa Teresita", "city": "QUEZON CITY", "position": {"lat": 14.620316531428614, "lng": 121.00090149142862}, "color": "#a78bfa"}, "Santo Cristo": {"name": "Santo Cristo", "city": "QUEZON CITY", "position": {"lat": 14.660912146250055, "lng": 121.02899451175003}, "color": "#a3e635"}, "Santol": {"name": "Santol", "city": "QUEZON CITY", "position": {"lat": 14.609496567714334, "lng": 121.01574694178576}, "color": "#22d3ee"}, "Sauyo": {"name": "Sauyo", "city": "QUEZON CITY", "position": {"lat": 14.695012631319493, "lng": 121.04414065206954}, "color": "#a3e635"}, "Sienna": {"name": "Sienna", "city": "QUEZON CITY", "position": {"lat": 14.636244945000044, "lng": 121.00593612700006}, "color": "#e879f9"}, "Sikatuna Village": {"name": "Sikatuna Village", "city": "QUEZON CITY", "position": {"lat": 14.638381365352991, "lng": 121.05922793123534}, "color": "#94a3b8"}, "Silangan": {"name": "Silangan", "city": "QUEZON CITY", "position": {"lat": 14.628386817562554, "lng": 121.05898378881258}, "color": "#e879f9"}, "Socorro": {"name": "Socorro", "city": "QUEZON CITY", "position": {"lat": 14.617356677250044, "lng": 121.05682183737508}, "color": "#a3e635"}, "South Triangle": {"name": "South Triangle", "city": "QUEZON CITY", "position": {"lat": 14.636357896857191, "lng": 121.0349716928572}, "color": "#22d3ee"}, "Tagumpay": {"name": "Tagumpay", "city": "QUEZON CITY", "position": {"lat": 14.622203107800056, "lng": 121.06431999270008}, "color": "#a3e635"}, "Talayan": {"name": "Talayan", "city": "QUEZON CITY", "position": {"lat": 14.63458702530005, "lng": 121.01204245475006}, "color": "#e879f9"}, "Talipapa": {"name": "Talipapa", "city": "QUEZON CITY", "position": {"lat": 14.686159786285762, "lng": 121.0255157918334}, "color": "#a78bfa"}, "Tandang Sora": {"name": "Tandang Sora", "city": "QUEZON CITY", "position": {"lat": 14.680742834902832, "lng": 121.0374425141528}, "color": "#fb7185"}, "Tatalon": {"name": "Tatalon", "city": "QUEZON CITY", "position": {"lat": 14.623729718400046, "lng": 121.01596747135008}, "color": "#e879f9"}, "Teachers Village East": {"name": "Teachers Village East", "city": "QUEZON CITY", "position": {"lat": 14.64481783276928, "lng": 121.05905031969239}, "color": "#a3e635"}, "Teachers Village West": {"name": "Teachers Village West", "city": "QUEZON CITY", "position": {"lat": 14.642932007375055, "lng": 121.05613812156257}, "color": "#f472b6"}, "U.P. Campus": {"name": "U.P. Campus", "city": "QUEZON CITY", "position": {"lat": 14.651944904052682, "lng": 121.06309136664925}, "color": "#a3e635"}, "U.P. Village": {"name": "U.P. Village", "city": "QUEZON CITY", "position": {"lat": 14.649078564619096, "lng": 121.05625325500007}, "color": "#a3e635"}, "Ugong Norte": {"name": "Ugong Norte", "city": "QUEZON CITY", "position": {"lat": 14.596489229393992, "lng": 121.07293620357582}, "color": "#a3e635"}, "Unang Sigaw": {"name": "Unang Sigaw", "city": "QUEZON CITY", "position": {"lat": 14.660186785928627, "lng": 121.00099384842868}, "color": "#a78bfa"}, "Valencia": {"name": "Valencia", "city": "QUEZON CITY", "position": {"lat": 14.610240103500049, "lng": 121.03743971640915}, "color": "#e879f9"}, "Vasra": {"name": "Vasra", "city": "QUEZON CITY", "position": {"lat": 14.657714366379363, "lng": 121.04740233879316}, "color": "#a78bfa"}, "Veterans Village": {"name": "Veterans Village", "city": "QUEZON CITY", "position": {"lat": 14.653948556533381, "lng": 121.0239314971334}, "color": "#e879f9"}, "Villa Maria Clara": {"name": "Villa Maria Clara", "city": "QUEZON CITY", "position": {"lat": 14.616666529833386, "lng": 121.0689374938334}, "color": "#27272a"}, "West Kamias": {"name": "West Kamias", "city": "QUEZON CITY", "position": {"lat": 14.62997728410005, "lng": 121.05008614530007}, "color": "#f472b6"}, "West Triangle": {"name": "West Triangle", "city": "QUEZON CITY", "position": {"lat": 14.644517806714342, "lng": 121.03119992342863}, "color": "#a78bfa"}, "White Plains": {"name": "White Plains", "city": "QUEZON CITY", "position": {"lat": 14.605436105571483, "lng": 121.0740064755001}, "color": "#e879f9"}, "Balong Bato": {"name": "Balong Bato", "city": "QUEZON CITY", "position": {"lat": 14.662908034800045, "lng": 121.00312745700006}, "color": "#22d3ee"}, "Capri": {"name": "Capri", "city": "QUEZON CITY", "position": {"lat": 14.716560833400042, "lng": 121.02843149470004}, "color": "#a3e635"}, "Sangandaan": {"name": "Sangandaan", "city": "QUEZON CITY", "position": {"lat": 14.67465671504172, "lng": 121.02188227941672}, "color": "#94a3b8"}, "Payatas": {"name": "Payatas", "city": "QUEZON CITY", "position": {"lat": 14.710840920450059, "lng": 121.09964412821675}, "color": "#94a3b8"}, "Batasan Hills": {"name": "Batasan Hills", "city": "QUEZON CITY", "position": {"lat": 14.68397553678952, "lng": 121.09809722478956}, "color": "#f472b6"}, "Holy Spirit": {"name": "Holy Spirit", "city": "QUEZON CITY", "position": {"lat": 14.684832037093802, "lng": 121.07771487893754}, "color": "#a78bfa"}, "Greater Lagro": {"name": "Greater Lagro", "city": "QUEZON CITY", "position": {"lat": 14.720660905318237, "lng": 121.0655089269849}, "color": "#e879f9"}, "North Fairview": {"name": "North Fairview", "city": "QUEZON CITY", "position": {"lat": 14.712692389428623, "lng": 121.06162128052385}, "color": "#a78bfa"}, "Balong-Bato": {"name": "Balong-Bato", "city": "CITY OF SAN JUAN", "position": {"lat": 14.608479295400048, "lng": 121.02586841010009}, "color": "#fb7185"}, "Batis": {"name": "Batis", "city": "CITY OF SAN JUAN", "position": {"lat": 14.600518286642918, "lng": 121.02550826950007}, "color": "#fb7185"}, "Corazon De Jesus": {"name": "Corazon De Jesus", "city": "CITY OF SAN JUAN", "position": {"lat": 14.60607501878266, "lng": 121.03190842717397}, "color": "#22d3ee"}, "Ermita\u00f1o": {"name": "Ermita\u00f1o", "city": "CITY OF SAN JUAN", "position": {"lat": 14.611509081583387, "lng": 121.03021569366672}, "color": "#f472b6"}, "Halo-halo (St. Joseph)": {"name": "Halo-halo (St. Joseph)", "city": "CITY OF SAN JUAN", "position": {"lat": 14.602954567857191, "lng": 121.03234431300005}, "color": "#fb7185"}, "Isabelita": {"name": "Isabelita", "city": "CITY OF SAN JUAN", "position": {"lat": 14.602719495625045, "lng": 121.03086756737507}, "color": "#27272a"}, "Kabayanan": {"name": "Kabayanan", "city": "CITY OF SAN JUAN", "position": {"lat": 14.596984152187545, "lng": 121.02957415281256}, "color": "#a78bfa"}, "Little Baguio": {"name": "Little Baguio", "city": "CITY OF SAN JUAN", "position": {"lat": 14.601942341041722, "lng": 121.0379445252501}, "color": "#a78bfa"}, "Maytunas": {"name": "Maytunas", "city": "CITY OF SAN JUAN", "position": {"lat": 14.594816514937548, "lng": 121.03331076750007}, "color": "#fb7185"}, "Onse": {"name": "Onse", "city": "CITY OF SAN JUAN", "position": {"lat": 14.601090049538506, "lng": 121.03224059069235}, "color": "#22d3ee"}, "Pasade\u00f1a": {"name": "Pasade\u00f1a", "city": "CITY OF SAN JUAN", "position": {"lat": 14.607697059500055, "lng": 121.03461234122233}, "color": "#fb7185"}, "Pedro Cruz": {"name": "Pedro Cruz", "city": "CITY OF SAN JUAN", "position": {"lat": 14.60508085084621, "lng": 121.0262956891539}, "color": "#94a3b8"}, "Progreso": {"name": "Progreso", "city": "CITY OF SAN JUAN", "position": {"lat": 14.603295168142902, "lng": 121.02065135514293}, "color": "#fb7185"}, "Rivera": {"name": "Rivera", "city": "CITY OF SAN JUAN", "position": {"lat": 14.605660111428636, "lng": 121.02224588371432}, "color": "#27272a"}, "Salapan": {"name": "Salapan", "city": "CITY OF SAN JUAN", "position": {"lat": 14.611577892153893, "lng": 121.02448688153851}, "color": "#f472b6"}, "San Perfecto": {"name": "San Perfecto", "city": "CITY OF SAN JUAN", "position": {"lat": 14.603509097250061, "lng": 121.02365250162505}, "color": "#22d3ee"}, "Tibagan": {"name": "Tibagan", "city": "CITY OF SAN JUAN", "position": {"lat": 14.601574508500054, "lng": 121.02940118725007}, "color": "#27272a"}, "West Crame": {"name": "West Crame", "city": "CITY OF SAN JUAN", "position": {"lat": 14.606564311800048, "lng": 121.04885243230005}, "color": "#fb7185"}, "Greenhills": {"name": "Greenhills", "city": "CITY OF SAN JUAN", "position": {"lat": 14.60271882746159, "lng": 121.04495740394883}, "color": "#e879f9"}, "Acacia": {"name": "Acacia", "city": "CITY OF MALABON", "position": {"lat": 14.667500842000045, "lng": 120.96996843255562}, "color": "#27272a"}, "Baritan": {"name": "Baritan", "city": "CITY OF MALABON", "position": {"lat": 14.672060601250038, "lng": 120.94775647525007}, "color": "#fb7185"}, "Bayan-bayanan": {"name": "Bayan-bayanan", "city": "CITY OF MALABON", "position": {"lat": 14.675761584142906, "lng": 120.94597466200004}, "color": "#a3e635"}, "Catmon": {"name": "Catmon", "city": "CITY OF MALABON", "position": {"lat": 14.66973742825005, "lng": 120.96022426815004}, "color": "#22d3ee"}, "Concepcion": {"name": "Concepcion", "city": "CITY OF MALABON", "position": {"lat": 14.669046249538509, "lng": 120.95041271423085}, "color": "#fb7185"}, "Dampalit": {"name": "Dampalit", "city": "CITY OF MALABON", "position": {"lat": 14.687986786833383, "lng": 120.93932089223341}, "color": "#a78bfa"}, "Flores": {"name": "Flores", "city": "CITY OF MALABON", "position": {"lat": 14.674908485714338, "lng": 120.94255171671433}, "color": "#a78bfa"}, "Hulong Duhat": {"name": "Hulong Duhat", "city": "CITY OF MALABON", "position": {"lat": 14.679778186923128, "lng": 120.94091827600006}, "color": "#a3e635"}, "Ibaba": {"name": "Ibaba", "city": "CITY OF MALABON", "position": {"lat": 14.66451412570006, "lng": 120.95113468600007}, "color": "#22d3ee"}, "Longos": {"name": "Longos", "city": "CITY OF MALABON", "position": {"lat": 14.653972233235342, "lng": 120.96019036041183}, "color": "#fb7185"}, "Maysilo": {"name": "Maysilo", "city": "CITY OF MALABON", "position": {"lat": 14.677993073705935, "lng": 120.95995158441183}, "color": "#e879f9"}, "Muzon": {"name": "Muzon", "city": "CITY OF MALABON", "position": {"lat": 14.674799381666707, "lng": 120.95072547508339}, "color": "#22d3ee"}, "Niugan": {"name": "Niugan", "city": "CITY OF MALABON", "position": {"lat": 14.665916952538518, "lng": 120.95561996630778}, "color": "#27272a"}, "Panghulo": {"name": "Panghulo", "city": "CITY OF MALABON", "position": {"lat": 14.684241036381003, "lng": 120.9519015168096}, "color": "#f472b6"}, "Potrero": {"name": "Potrero", "city": "CITY OF MALABON", "position": {"lat": 14.668988230589788, "lng": 120.98495832692315}, "color": "#94a3b8"}, "Ta\u00f1ong (Pob.)": {"name": "Ta\u00f1ong (Pob.)", "city": "CITY OF MALABON", "position": {"lat": 14.655926994076971, "lng": 120.95298380353853}, "color": "#a3e635"}, "Tinajeros": {"name": "Tinajeros", "city": "CITY OF MALABON", "position": {"lat": 14.673854556333387, "lng": 120.96638737053341}, "color": "#f472b6"}, "Tonsuya": {"name": "Tonsuya", "city": "CITY OF MALABON", "position": {"lat": 14.662549264833387, "lng": 120.96250258700003}, "color": "#a3e635"}, "Tugatog": {"name": "Tugatog", "city": "CITY OF MALABON", "position": {"lat": 14.664096098650052, "lng": 120.96851008865004}, "color": "#e879f9"}, "Sipac-Almacen": {"name": "Sipac-Almacen", "city": "CITY OF NAVOTAS", "position": {"lat": 14.657042899714332, "lng": 120.94669851385717}, "color": "#22d3ee"}, "Bagumbayan North": {"name": "Bagumbayan North", "city": "CITY OF NAVOTAS", "position": {"lat": 14.651912814968798, "lng": 120.94876706912505}, "color": "#27272a"}, "Bagumbayan South": {"name": "Bagumbayan South", "city": "CITY OF NAVOTAS", "position": {"lat": 14.651441262722276, "lng": 120.9502278018334}, "color": "#e879f9"}, "Bangculasi": {"name": "Bangculasi", "city": "CITY OF NAVOTAS", "position": {"lat": 14.648444078310394, "lng": 120.95203721982762}, "color": "#22d3ee"}, "Daanghari": {"name": "Daanghari", "city": "CITY OF NAVOTAS", "position": {"lat": 14.66752960302946, "lng": 120.94013355550005}, "color": "#94a3b8"}, "Navotas East": {"name": "Navotas East", "city": "CITY OF NAVOTAS", "position": {"lat": 14.654353942818231, "lng": 120.94985916890916}, "color": "#94a3b8"}, "Navotas West": {"name": "Navotas West", "city": "CITY OF NAVOTAS", "position": {"lat": 14.654008053304393, "lng": 120.94755820165224}, "color": "#f472b6"}, "North Bay Blvd., North": {"name": "North Bay Blvd., North", "city": "CITY OF NAVOTAS", "position": {"lat": 14.646577550553241, "lng": 120.94983539551069}, "color": "#27272a"}, "North Bay Blvd., South": {"name": "North Bay Blvd., South", "city": "CITY OF NAVOTAS", "position": {"lat": 14.63995847986006, "lng": 120.95593355150005}, "color": "#a78bfa"}, "San Jose (Pob.)": {"name": "San Jose (Pob.)", "city": "CITY OF NAVOTAS", "position": {"lat": 14.662143189132129, "lng": 120.94253624898118}, "color": "#94a3b8"}, "San Rafael Village": {"name": "San Rafael Village", "city": "CITY OF NAVOTAS", "position": {"lat": 14.6391446029546, "lng": 120.9643025654319}, "color": "#f472b6"}, "Tangos": {"name": "Tangos", "city": "CITY OF NAVOTAS", "position": {"lat": 14.672832087057191, "lng": 120.93425373394294}, "color": "#a78bfa"}, "Tanza": {"name": "Tanza", "city": "CITY OF NAVOTAS", "position": {"lat": 14.69178379491144, "lng": 120.92223586164563}, "color": "#e879f9"}, "Arkong Bato": {"name": "Arkong Bato", "city": "CITY OF VALENZUELA", "position": {"lat": 14.69833834091672, "lng": 120.95291258000005}, "color": "#e879f9"}, "Bagbaguin": {"name": "Bagbaguin", "city": "CITY OF VALENZUELA", "position": {"lat": 14.71661313586116, "lng": 121.0020326439445}, "color": "#27272a"}, "Balangkas": {"name": "Balangkas", "city": "CITY OF VALENZUELA", "position": {"lat": 14.717039561840052, "lng": 120.93776451768008}, "color": "#27272a"}, "Parada": {"name": "Parada", "city": "CITY OF VALENZUELA", "position": {"lat": 14.69724999984005, "lng": 120.98854325024004}, "color": "#94a3b8"}, "Bignay": {"name": "Bignay", "city": "CITY OF VALENZUELA", "position": {"lat": 14.745805043115437, "lng": 120.99524194161546}, "color": "#27272a"}, "Bisig": {"name": "Bisig", "city": "CITY OF VALENZUELA", "position": {"lat": 14.713066505857196, "lng": 120.9463027378572}, "color": "#a3e635"}, "Canumay West (Canumay)": {"name": "Canumay West (Canumay)", "city": "CITY OF VALENZUELA", "position": {"lat": 14.70976737834788, "lng": 120.98269524234786}, "color": "#f472b6"}, "Karuhatan": {"name": "Karuhatan", "city": "CITY OF VALENZUELA", "position": {"lat": 14.688625382571471, "lng": 120.97564676671435}, "color": "#94a3b8"}, "Coloong": {"name": "Coloong", "city": "CITY OF VALENZUELA", "position": {"lat": 14.726250098138943, "lng": 120.94397560080562}, "color": "#f472b6"}, "Dalandanan": {"name": "Dalandanan", "city": "CITY OF VALENZUELA", "position": {"lat": 14.704864427758677, "lng": 120.96053527782765}, "color": "#a3e635"}, "Gen. T. De Leon": {"name": "Gen. T. De Leon", "city": "CITY OF VALENZUELA", "position": {"lat": 14.686482150931864, "lng": 120.99226174288646}, "color": "#a3e635"}, "Isla": {"name": "Isla", "city": "CITY OF VALENZUELA", "position": {"lat": 14.70421901281823, "lng": 120.95175542590918}, "color": "#a3e635"}, "Lawang Bato": {"name": "Lawang Bato", "city": "CITY OF VALENZUELA", "position": {"lat": 14.731048255837882, "lng": 120.99413925881089}, "color": "#f472b6"}, "Lingunan": {"name": "Lingunan", "city": "CITY OF VALENZUELA", "position": {"lat": 14.71915942464521, "lng": 120.97672170854847}, "color": "#e879f9"}, "Mabolo": {"name": "Mabolo", "city": "CITY OF VALENZUELA", "position": {"lat": 14.710658253000046, "lng": 120.94842071790914}, "color": "#f472b6"}, "Malinta": {"name": "Malinta", "city": "CITY OF VALENZUELA", "position": {"lat": 14.69012743382932, "lng": 120.96652318468298}, "color": "#a78bfa"}, "Mapulang Lupa": {"name": "Mapulang Lupa", "city": "CITY OF VALENZUELA", "position": {"lat": 14.70387748420594, "lng": 121.00435634576479}, "color": "#a78bfa"}, "Marulas": {"name": "Marulas", "city": "CITY OF VALENZUELA", "position": {"lat": 14.677659859039272, "lng": 120.98393252801968}, "color": "#e879f9"}, "Maysan": {"name": "Maysan", "city": "CITY OF VALENZUELA", "position": {"lat": 14.701754869947417, "lng": 120.97714154900005}, "color": "#a78bfa"}, "Palasan": {"name": "Palasan", "city": "CITY OF VALENZUELA", "position": {"lat": 14.70439600050006, "lng": 120.94779349008338}, "color": "#a78bfa"}, "Pariancillo Villa": {"name": "Pariancillo Villa", "city": "CITY OF VALENZUELA", "position": {"lat": 14.708094887833388, "lng": 120.94432194816672}, "color": "#22d3ee"}, "Paso De Blas": {"name": "Paso De Blas", "city": "CITY OF VALENZUELA", "position": {"lat": 14.706844891638942, "lng": 120.99423783836119}, "color": "#f472b6"}, "Pasolo": {"name": "Pasolo", "city": "CITY OF VALENZUELA", "position": {"lat": 14.707171898111161, "lng": 120.9533462255001}, "color": "#27272a"}, "Pulo": {"name": "Pulo", "city": "CITY OF VALENZUELA", "position": {"lat": 14.707600119000046, "lng": 120.94775018414293}, "color": "#27272a"}, "Punturin": {"name": "Punturin", "city": "CITY OF VALENZUELA", "position": {"lat": 14.738137537333374, "lng": 120.98849398044452}, "color": "#94a3b8"}, "Rincon": {"name": "Rincon", "city": "CITY OF VALENZUELA", "position": {"lat": 14.698034469666725, "lng": 120.95850941380007}, "color": "#a3e635"}, "Tagalag": {"name": "Tagalag", "city": "CITY OF VALENZUELA", "position": {"lat": 14.725369361517291, "lng": 120.9387359926552}, "color": "#94a3b8"}, "Viente Reales": {"name": "Viente Reales", "city": "CITY OF VALENZUELA", "position": {"lat": 14.712987684081137, "lng": 120.9684804300271}, "color": "#a78bfa"}, "Wawang Pulo": {"name": "Wawang Pulo", "city": "CITY OF VALENZUELA", "position": {"lat": 14.732608744230815, "lng": 120.92975716315391}, "color": "#a3e635"}, "Canumay East (Canumay)": {"name": "Canumay East (Canumay)", "city": "CITY OF VALENZUELA", "position": {"lat": 14.718782280400053, "lng": 120.99382738425001}, "color": "#fb7185"}, "Almanza Uno": {"name": "Almanza Uno", "city": "CITY OF LAS PI\u00d1AS", "position": {"lat": 14.41217488470005, "lng": 120.99720915910007}, "color": "#27272a"}, "Daniel Fajardo": {"name": "Daniel Fajardo", "city": "CITY OF LAS PI\u00d1AS", "position": {"lat": 14.480819716210576, "lng": 120.9813894278948}, "color": "#a78bfa"}, "Elias Aldana": {"name": "Elias Aldana", "city": "CITY OF LAS PI\u00d1AS", "position": {"lat": 14.477498603857196, "lng": 120.97576147132148}, "color": "#fb7185"}, "Ilaya": {"name": "Ilaya", "city": "CITY OF LAS PI\u00d1AS", "position": {"lat": 14.47904843593338, "lng": 120.97994208346672}, "color": "#27272a"}, "Manuyo Uno": {"name": "Manuyo Uno", "city": "CITY OF LAS PI\u00d1AS", "position": {"lat": 14.480332922405456, "lng": 120.9858665614595}, "color": "#22d3ee"}, "Pamplona Uno": {"name": "Pamplona Uno", "city": "CITY OF LAS PI\u00d1AS", "position": {"lat": 14.458389191172465, "lng": 120.97183369803453}, "color": "#fb7185"}, "Pulang Lupa Uno": {"name": "Pulang Lupa Uno", "city": "CITY OF LAS PI\u00d1AS", "position": {"lat": 14.4718958731429, "lng": 120.97681596367349}, "color": "#fb7185"}, "Talon Uno": {"name": "Talon Uno", "city": "CITY OF LAS PI\u00d1AS", "position": {"lat": 14.417582588884667, "lng": 120.99938116403854}, "color": "#22d3ee"}, "Zapote": {"name": "Zapote", "city": "CITY OF LAS PI\u00d1AS", "position": {"lat": 14.465497501655216, "lng": 120.97321809982763}, "color": "#a3e635"}, "Almanza Dos": {"name": "Almanza Dos", "city": "CITY OF LAS PI\u00d1AS", "position": {"lat": 14.403042987238146, "lng": 121.00821256023816}, "color": "#fb7185"}, "B. F. International Village": {"name": "B. F. International Village", "city": "CITY OF LAS PI\u00d1AS", "position": {"lat": 14.451053886318233, "lng": 121.00462427712124}, "color": "#a78bfa"}, "Manuyo Dos": {"name": "Manuyo Dos", "city": "CITY OF LAS PI\u00d1AS", "position": {"lat": 14.46948915861368, "lng": 120.99315130952282}, "color": "#f472b6"}, "Pamplona Dos": {"name": "Pamplona Dos", "city": "CITY OF LAS PI\u00d1AS", "position": {"lat": 14.446915627366717, "lng": 120.9766081203334}, "color": "#22d3ee"}, "Pamplona Tres": {"name": "Pamplona Tres", "city": "CITY OF LAS PI\u00d1AS", "position": {"lat": 14.45636335868187, "lng": 120.98326405115914}, "color": "#fb7185"}, "Pilar": {"name": "Pilar", "city": "CITY OF LAS PI\u00d1AS", "position": {"lat": 14.420720641844877, "lng": 121.00690727813797}, "color": "#22d3ee"}, "Pulang Lupa Dos": {"name": "Pulang Lupa Dos", "city": "CITY OF LAS PI\u00d1AS", "position": {"lat": 14.462621986309134, "lng": 120.98694586263645}, "color": "#fb7185"}, "Talon Dos": {"name": "Talon Dos", "city": "CITY OF LAS PI\u00d1AS", "position": {"lat": 14.436291809804935, "lng": 120.98844213069519}, "color": "#fb7185"}, "Talon Tres": {"name": "Talon Tres", "city": "CITY OF LAS PI\u00d1AS", "position": {"lat": 14.445340606673522, "lng": 121.003231557796}, "color": "#fb7185"}, "Talon Kuatro": {"name": "Talon Kuatro", "city": "CITY OF LAS PI\u00d1AS", "position": {"lat": 14.43454676541031, "lng": 120.99927833835899}, "color": "#fb7185"}, "Talon Singko": {"name": "Talon Singko", "city": "CITY OF LAS PI\u00d1AS", "position": {"lat": 14.423960353418963, "lng": 120.99854218717576}, "color": "#f472b6"}, "Bangkal": {"name": "Bangkal", "city": "CITY OF MAKATI", "position": {"lat": 14.54412250938894, "lng": 121.0123362410556}, "color": "#a3e635"}, "Bel-Air": {"name": "Bel-Air", "city": "CITY OF MAKATI", "position": {"lat": 14.56173042044833, "lng": 121.0287555803794}, "color": "#a78bfa"}, "Cembo": {"name": "Cembo", "city": "CITY OF MAKATI", "position": {"lat": 14.56456461756255, "lng": 121.05068305631255}, "color": "#a3e635"}, "Comembo": {"name": "Comembo", "city": "CITY OF MAKATI", "position": {"lat": 14.548005647700046, "lng": 121.06396622925008}, "color": "#a78bfa"}, "Carmona": {"name": "Carmona", "city": "CITY OF MAKATI", "position": {"lat": 14.575310520200048, "lng": 121.01873397670006}, "color": "#94a3b8"}, "Dasmari\u00f1as": {"name": "Dasmari\u00f1as", "city": "CITY OF MAKATI", "position": {"lat": 14.539500830217442, "lng": 121.0307438041305}, "color": "#a3e635"}, "East Rembo": {"name": "East Rembo", "city": "CITY OF MAKATI", "position": {"lat": 14.553498490115437, "lng": 121.06220013850007}, "color": "#27272a"}, "Forbes Park": {"name": "Forbes Park", "city": "CITY OF MAKATI", "position": {"lat": 14.545888845656304, "lng": 121.03868408271879}, "color": "#a78bfa"}, "Guadalupe Nuevo": {"name": "Guadalupe Nuevo", "city": "CITY OF MAKATI", "position": {"lat": 14.562656291611168, "lng": 121.04611962005563}, "color": "#e879f9"}, "Guadalupe Viejo": {"name": "Guadalupe Viejo", "city": "CITY OF MAKATI", "position": {"lat": 14.565042512083389, "lng": 121.04214051883339}, "color": "#a78bfa"}, "Kasilawan": {"name": "Kasilawan", "city": "CITY OF MAKATI", "position": {"lat": 14.577103145428632, "lng": 121.01591076371434}, "color": "#a78bfa"}, "La Paz": {"name": "La Paz", "city": "CITY OF MAKATI", "position": {"lat": 14.568886748285763, "lng": 121.00985364828576}, "color": "#27272a"}, "Magallanes": {"name": "Magallanes", "city": "CITY OF MAKATI", "position": {"lat": 14.533028022809576, "lng": 121.01738340395241}, "color": "#e879f9"}, "Olympia": {"name": "Olympia", "city": "CITY OF MAKATI", "position": {"lat": 14.571704659769278, "lng": 121.02075904800007}, "color": "#e879f9"}, "Palanan": {"name": "Palanan", "city": "CITY OF MAKATI", "position": {"lat": 14.558998729272771, "lng": 121.0017807373637}, "color": "#e879f9"}, "Pembo": {"name": "Pembo", "city": "CITY OF MAKATI", "position": {"lat": 14.545614178791721, "lng": 121.05876189741674}, "color": "#fb7185"}, "Pio Del Pilar": {"name": "Pio Del Pilar", "city": "CITY OF MAKATI", "position": {"lat": 14.551845983736891, "lng": 121.01104908984217}, "color": "#fb7185"}, "Pitogo": {"name": "Pitogo", "city": "CITY OF MAKATI", "position": {"lat": 14.556607928833381, "lng": 121.04544319808339}, "color": "#27272a"}, "Post Proper Northside": {"name": "Post Proper Northside", "city": "CITY OF MAKATI", "position": {"lat": 14.55425379968894, "lng": 121.05273548266675}, "color": "#27272a"}, "San Lorenzo": {"name": "San Lorenzo", "city": "CITY OF MAKATI", "position": {"lat": 14.55335898433338, "lng": 121.01978718833338}, "color": "#e879f9"}, "Singkamas": {"name": "Singkamas", "city": "CITY OF MAKATI", "position": {"lat": 14.571655167857184, "lng": 121.0108115501429}, "color": "#22d3ee"}, "South Cembo": {"name": "South Cembo", "city": "CITY OF MAKATI", "position": {"lat": 14.559682132263205, "lng": 121.05095374042111}, "color": "#fb7185"}, "Tejeros": {"name": "Tejeros", "city": "CITY OF MAKATI", "position": {"lat": 14.57296783891672, "lng": 121.01410652516672}, "color": "#27272a"}, "Urdaneta": {"name": "Urdaneta", "city": "CITY OF MAKATI", "position": {"lat": 14.555876011250056, "lng": 121.03007534625006}, "color": "#e879f9"}, "Valenzuela": {"name": "Valenzuela", "city": "CITY OF MAKATI", "position": {"lat": 14.569929660538513, "lng": 121.02393912453853}, "color": "#fb7185"}, "West Rembo": {"name": "West Rembo", "city": "CITY OF MAKATI", "position": {"lat": 14.55990464968187, "lng": 121.061981447591}, "color": "#e879f9"}, "Rizal": {"name": "Rizal", "city": "CITY OF MAKATI", "position": {"lat": 14.536353133571476, "lng": 121.06138699061913}, "color": "#f472b6"}, "Post Proper Southside": {"name": "Post Proper Southside", "city": "CITY OF MAKATI", "position": {"lat": 14.54202625022227, "lng": 121.05018544505563}, "color": "#22d3ee"}, "Alabang": {"name": "Alabang", "city": "CITY OF MUNTINLUPA", "position": {"lat": 14.420120591268336, "lng": 121.04421085709762}, "color": "#a78bfa"}, "Bayanan": {"name": "Bayanan", "city": "CITY OF MUNTINLUPA", "position": {"lat": 14.408273611518567, "lng": 121.04584169114817}, "color": "#fb7185"}, "Buli": {"name": "Buli", "city": "CITY OF MUNTINLUPA", "position": {"lat": 14.443331407615435, "lng": 121.04962877742315}, "color": "#27272a"}, "Cupang": {"name": "Cupang", "city": "CITY OF MUNTINLUPA", "position": {"lat": 14.433156303965564, "lng": 121.04222805824143}, "color": "#fb7185"}, "Putatan": {"name": "Putatan", "city": "CITY OF MUNTINLUPA", "position": {"lat": 14.398769996460047, "lng": 121.03976956332008}, "color": "#a78bfa"}, "Sucat": {"name": "Sucat", "city": "CITY OF MUNTINLUPA", "position": {"lat": 14.45426113431919, "lng": 121.0490042834681}, "color": "#22d3ee"}, "Tunasan": {"name": "Tunasan", "city": "CITY OF MUNTINLUPA", "position": {"lat": 14.371121615737547, "lng": 121.03449325023757}, "color": "#a3e635"}, "New Alabang Village": {"name": "New Alabang Village", "city": "CITY OF MUNTINLUPA", "position": {"lat": 14.408502371416716, "lng": 121.02521852386116}, "color": "#27272a"}, "Baclaran": {"name": "Baclaran", "city": "CITY OF PARA\u00d1AQUE", "position": {"lat": 14.527899619233384, "lng": 120.9932325763667}, "color": "#a78bfa"}, "Don Galo": {"name": "Don Galo", "city": "CITY OF PARA\u00d1AQUE", "position": {"lat": 14.50128069885005, "lng": 120.98499311205009}, "color": "#22d3ee"}, "La Huerta": {"name": "La Huerta", "city": "CITY OF PARA\u00d1AQUE", "position": {"lat": 14.500480154400043, "lng": 120.98700498640008}, "color": "#f472b6"}, "San Dionisio": {"name": "San Dionisio", "city": "CITY OF PARA\u00d1AQUE", "position": {"lat": 14.50016790440003, "lng": 120.98647917000005}, "color": "#a3e635"}, "Tambo": {"name": "Tambo", "city": "CITY OF PARA\u00d1AQUE", "position": {"lat": 14.516351565000052, "lng": 120.99209490727458}, "color": "#fb7185"}, "B. F. Homes": {"name": "B. F. Homes", "city": "CITY OF PARA\u00d1AQUE", "position": {"lat": 14.453549904711322, "lng": 121.01979517104226}, "color": "#22d3ee"}, "Don Bosco": {"name": "Don Bosco", "city": "CITY OF PARA\u00d1AQUE", "position": {"lat": 14.48288322635299, "lng": 121.0251199659486}, "color": "#22d3ee"}, "Marcelo Green Village": {"name": "Marcelo Green Village", "city": "CITY OF PARA\u00d1AQUE", "position": {"lat": 14.471453955239488, "lng": 121.03739368366205}, "color": "#fb7185"}, "Merville": {"name": "Merville", "city": "CITY OF PARA\u00d1AQUE", "position": {"lat": 14.498387008915534, "lng": 121.02376544714089}, "color": "#e879f9"}, "Moonwalk": {"name": "Moonwalk", "city": "CITY OF PARA\u00d1AQUE", "position": {"lat": 14.487947690888161, "lng": 121.0090458187344}, "color": "#a3e635"}, "Sun Valley": {"name": "Sun Valley", "city": "CITY OF PARA\u00d1AQUE", "position": {"lat": 14.489880754879362, "lng": 121.03229640603456}, "color": "#a3e635"}, "Vitalez": {"name": "Vitalez", "city": "CITY OF PARA\u00d1AQUE", "position": {"lat": 14.509287239000052, "lng": 121.00611516609094}, "color": "#e879f9"}, "Aguho": {"name": "Aguho", "city": "PATEROS", "position": {"lat": 14.543381346388937, "lng": 121.06403009238895}, "color": "#22d3ee"}, "Magtanggol": {"name": "Magtanggol", "city": "PATEROS", "position": {"lat": 14.548303846900051, "lng": 121.07115141470008}, "color": "#e879f9"}, "Martires Del 96": {"name": "Martires Del 96", "city": "PATEROS", "position": {"lat": 14.539487832363683, "lng": 121.06715692127278}, "color": "#e879f9"}, "San Pedro": {"name": "San Pedro", "city": "PATEROS", "position": {"lat": 14.546875945300048, "lng": 121.06755284050004}, "color": "#22d3ee"}, "Santa Ana": {"name": "Santa Ana", "city": "TAGUIG CITY", "position": {"lat": 14.521748558727323, "lng": 121.08213060450008}, "color": "#a78bfa"}, "Santo Rosario-Kanluran": {"name": "Santo Rosario-Kanluran", "city": "PATEROS", "position": {"lat": 14.551405964500043, "lng": 121.06846041683339}, "color": "#a78bfa"}, "Santo Rosario-Silangan": {"name": "Santo Rosario-Silangan", "city": "PATEROS", "position": {"lat": 14.549287568545507, "lng": 121.07204672990916}, "color": "#e879f9"}, "Tabacalera": {"name": "Tabacalera", "city": "PATEROS", "position": {"lat": 14.549707802700055, "lng": 121.06845026370006}, "color": "#a78bfa"}, "Tanyag (Bagong Tanyag)": {"name": "Tanyag (Bagong Tanyag)", "city": "TAGUIG CITY", "position": {"lat": 14.475396293666714, "lng": 121.04921714500006}, "color": "#22d3ee"}, "Calzada": {"name": "Calzada", "city": "TAGUIG CITY", "position": {"lat": 14.528683909650045, "lng": 121.08384219295007}, "color": "#a3e635"}, "Hagonoy": {"name": "Hagonoy", "city": "TAGUIG CITY", "position": {"lat": 14.512148046565263, "lng": 121.07213504760875}, "color": "#a3e635"}, "Ibayo-Tipas": {"name": "Ibayo-Tipas", "city": "TAGUIG CITY", "position": {"lat": 14.542088869166712, "lng": 121.08511569511117}, "color": "#94a3b8"}, "Ligid-Tipas": {"name": "Ligid-Tipas", "city": "TAGUIG CITY", "position": {"lat": 14.543126181857186, "lng": 121.07957028528578}, "color": "#e879f9"}, "Lower Bicutan": {"name": "Lower Bicutan", "city": "TAGUIG CITY", "position": {"lat": 14.489510190937548, "lng": 121.05834096481254}, "color": "#22d3ee"}, "Maharlika Village": {"name": "Maharlika Village", "city": "TAGUIG CITY", "position": {"lat": 14.498157350636415, "lng": 121.05589247318186}, "color": "#a3e635"}, "Napindan": {"name": "Napindan", "city": "TAGUIG CITY", "position": {"lat": 14.533724206920047, "lng": 121.09745244932009}, "color": "#22d3ee"}, "Palingon": {"name": "Palingon", "city": "TAGUIG CITY", "position": {"lat": 14.52142316933338, "lng": 121.10240483016673}, "color": "#22d3ee"}, "Central Signal Village (Signal Village)": {"name": "Central Signal Village (Signal Village)", "city": "TAGUIG CITY", "position": {"lat": 14.512182229058874, "lng": 121.05498072164713}, "color": "#a3e635"}, "Tuktukan": {"name": "Tuktukan", "city": "TAGUIG CITY", "position": {"lat": 14.529682387200042, "lng": 121.0719373441334}, "color": "#a78bfa"}, "Upper Bicutan": {"name": "Upper Bicutan", "city": "TAGUIG CITY", "position": {"lat": 14.499125375727317, "lng": 121.05134104663642}, "color": "#94a3b8"}, "Ususan": {"name": "Ususan", "city": "TAGUIG CITY", "position": {"lat": 14.533268921694495, "lng": 121.06440696100006}, "color": "#e879f9"}, "Wawa": {"name": "Wawa", "city": "TAGUIG CITY", "position": {"lat": 14.517027048000047, "lng": 121.07971278726093}, "color": "#f472b6"}, "Western Bicutan": {"name": "Western Bicutan", "city": "TAGUIG CITY", "position": {"lat": 14.5185741886487, "lng": 121.0436837880001}, "color": "#22d3ee"}, "Central Bicutan": {"name": "Central Bicutan", "city": "TAGUIG CITY", "position": {"lat": 14.491904784000045, "lng": 121.05240733637507}, "color": "#94a3b8"}, "Katuparan": {"name": "Katuparan", "city": "TAGUIG CITY", "position": {"lat": 14.51978028493755, "lng": 121.06051669118756}, "color": "#a3e635"}, "New Lower Bicutan": {"name": "New Lower Bicutan", "city": "TAGUIG CITY", "position": {"lat": 14.505176384400048, "lng": 121.06305955046673}, "color": "#27272a"}, "North Daang Hari": {"name": "North Daang Hari", "city": "TAGUIG CITY", "position": {"lat": 14.48520825687504, "lng": 121.04793631125004}, "color": "#22d3ee"}, "North Signal Village": {"name": "North Signal Village", "city": "TAGUIG CITY", "position": {"lat": 14.51792678613641, "lng": 121.05864847836371}, "color": "#f472b6"}, "Pinagsama": {"name": "Pinagsama", "city": "TAGUIG CITY", "position": {"lat": 14.52598762789748, "lng": 121.05193681533339}, "color": "#27272a"}, "South Daang Hari": {"name": "South Daang Hari", "city": "TAGUIG CITY", "position": {"lat": 14.469825009875045, "lng": 121.04900415700007}, "color": "#a78bfa"}, "South Signal Village": {"name": "South Signal Village", "city": "TAGUIG CITY", "position": {"lat": 14.504689982533387, "lng": 121.05598593106676}, "color": "#a78bfa"}, "Fort Bonifacio": {"name": "Fort Bonifacio", "city": "TAGUIG CITY", "position": {"lat": 14.534802802346203, "lng": 121.03647191711542}, "color": "#f472b6"}}