{"PH133901000": {"id": "PH133901000", "name": "TONDO I / II", "city": "CITY OF MANILA", "position": {"lat": 14.618714, "lng": 120.965756}, "color": "#166534", "value": 99200.0, "level": 1}, "PH133902000": {"id": "PH133902000", "name": "BINONDO", "city": "CITY OF MANILA", "position": {"lat": 14.602223866363685, "lng": 120.97605610818185}, "color": "#991b1b", "value": 429000.0, "level": 8}, "PH133903000": {"id": "PH133903000", "name": "QUIAPO", "city": "CITY OF MANILA", "position": {"lat": 14.59824, "lng": 120.985848}, "color": "#991b1b", "value": 435000.0, "level": 8}, "PH133904000": {"id": "PH133904000", "name": "SAN NICOLAS", "city": "CITY OF MANILA", "position": {"lat": 14.597543779300059, "lng": 120.96729167720005}, "color": "gray", "value": 0}, "PH133905000": {"id": "PH133905000", "name": "SANTA CRUZ", "city": "CITY OF MANILA", "position": {"lat": 14.61686, "lng": 120.982948}, "color": "#f87171", "value": 305000.0, "level": 6}, "PH133906000": {"id": "PH133906000", "name": "SAMPALOC", "city": "CITY OF MANILA", "position": {"lat": 14.609748, "lng": 120.999008}, "color": "#bbf7d0", "value": 219000.0, "level": 4}, "PH133907000": {"id": "PH133907000", "name": "SAN MIGUEL", "city": "CITY OF MANILA", "position": {"lat": 14.593882633400039, "lng": 120.98723254560005}, "color": "gray", "value": 0}, "PH133908000": {"id": "PH133908000", "name": "ERMITA", "city": "CITY OF MANILA", "position": {"lat": 14.582367, "lng": 120.984626}, "color": "#991b1b", "value": 416000.0, "level": 8}, "PH133909000": {"id": "PH133909000", "name": "INTRAMUROS", "city": "CITY OF MANILA", "position": {"lat": 14.589569132909132, "lng": 120.97735090109096}, "color": "gray", "value": 0}, "PH133910000": {"id": "PH133910000", "name": "MALATE", "city": "CITY OF MANILA", "position": {"lat": 14.570199, "lng": 120.99142}, "color": "#4ade80", "value": 199000.0, "level": 3}, "PH133911000": {"id": "PH133911000", "name": "PACO", "city": "CITY OF MANILA", "position": {"lat": 14.584858, "lng": 120.994482}, "color": "#450a0a", "value": 482000.0, "level": 9}, "PH133912000": {"id": "PH133912000", "name": "PANDACAN", "city": "CITY OF MANILA", "position": {"lat": 14.59092, "lng": 121.005592}, "color": "#16a34a", "value": 143000.0, "level": 2}, "PH133913000": {"id": "PH133913000", "name": "PORT AREA", "city": "CITY OF MANILA", "position": {"lat": 14.5832897980299, "lng": 120.97054196110453}, "color": "gray", "value": 0}, "PH133914000": {"id": "PH133914000", "name": "SANTA ANA", "city": "CITY OF MANILA", "position": {"lat": 14.576558, "lng": 121.006426}, "color": "#4ade80", "value": 173000.0, "level": 3}, "PH137401001": {"id": "PH137401001", "name": "Addition Hills", "city": "CITY OF MANDALUYONG", "position": {"lat": 14.58798776781823, "lng": 121.0399661266364}, "color": "#f87171", "value": 306000.0, "level": 6}, "PH137401002": {"id": "PH137401002", "name": "Bagong Silang", "city": "CITY OF MANDALUYONG", "position": {"lat": 14.591793559875057, "lng": 121.03166983712507}, "color": "gray", "value": 0}, "PH137401003": {"id": "PH137401003", "name": "Barangka Drive", "city": "CITY OF MANDALUYONG", "position": {"lat": 14.572691020750048, "lng": 121.03772675075005}, "color": "#f87171", "value": 303000.0, "level": 6}, "PH137401004": {"id": "PH137401004", "name": "Barangka Ibaba", "city": "CITY OF MANDALUYONG", "position": {"lat": 14.57039705250005, "lng": 121.03912455000011}, "color": "gray", "value": 0}, "PH137401005": {"id": "PH137401005", "name": "Barangka Ilaya", "city": "CITY OF MANDALUYONG", "position": {"lat": 14.572197042111169, "lng": 121.04837528661116}, "color": "#fecaca", "value": 289000.0, "level": 5}, "PH137401006": {"id": "PH137401006", "name": "Barangka Itaas", "city": "CITY OF MANDALUYONG", "position": {"lat": 14.57152272966672, "lng": 121.04213805866674}, "color": "#fecaca", "value": 263000.0, "level": 5}, "PH137401007": {"id": "PH137401007", "name": "Burol", "city": "CITY OF MANDALUYONG", "position": {"lat": 14.589493040400043, "lng": 121.02775818680007}, "color": "#166534", "value": 76000.0, "level": 1}, "PH137401008": {"id": "PH137401008", "name": "Buayang Bato", "city": "CITY OF MANDALUYONG", "position": {"lat": 14.570668688750056, "lng": 121.0512160110834}, "color": "gray", "value": 0}, "PH137401009": {"id": "PH137401009", "name": "Daang Bakal", "city": "CITY OF MANDALUYONG", "position": {"lat": 14.593299310000047, "lng": 121.02811567000009}, "color": "#f87171", "value": 311000.0, "level": 6}, "PH137401010": {"id": "PH137401010", "name": "Hagdang Bato Itaas", "city": "CITY OF MANDALUYONG", "position": {"lat": 14.58851269208339, "lng": 121.03076492100006}, "color": "#4ade80", "value": 184000.0, "level": 3}, "PH137401011": {"id": "PH137401011", "name": "Hagdang Bato Libis", "city": "CITY OF MANDALUYONG", "position": {"lat": 14.588809431642902, "lng": 121.03426107557148}, "color": "#4ade80", "value": 190000.0, "level": 3}, "PH137401012": {"id": "PH137401012", "name": "Harapin Ang Bukas", "city": "CITY OF MANDALUYONG", "position": {"lat": 14.590952004500044, "lng": 121.02778335350008}, "color": "gray", "value": 0}, "PH137401013": {"id": "PH137401013", "name": "Highway Hills", "city": "CITY OF MANDALUYONG", "position": {"lat": 14.576873630925977, "lng": 121.05059154896307}, "color": "#4ade80", "value": 200000.0, "level": 3}, "PH137401014": {"id": "PH137401014", "name": "Hulo", "city": "CITY OF MANDALUYONG", "position": {"lat": 14.571782546416722, "lng": 121.03163036225006}, "color": "gray", "value": 0}, "PH137401015": {"id": "PH137401015", "name": "Mabini-J. Rizal", "city": "CITY OF MANDALUYONG", "position": {"lat": 14.584819742928621, "lng": 121.02211854521435}, "color": "#4ade80", "value": 177000.0, "level": 3}, "PH137401016": {"id": "PH137401016", "name": "Malamig", "city": "CITY OF MANDALUYONG", "position": {"lat": 14.57498812460005, "lng": 121.04438552320006}, "color": "#4ade80", "value": 193000.0, "level": 3}, "PH137401017": {"id": "PH137401017", "name": "Mauway", "city": "CITY OF MANDALUYONG", "position": {"lat": 14.580958756789519, "lng": 121.04349341078954}, "color": "gray", "value": 0}, "PH137401018": {"id": "PH137401018", "name": "Namayan", "city": "CITY OF MANDALUYONG", "position": {"lat": 14.580729711866718, "lng": 121.02188811873341}, "color": "gray", "value": 0}, "PH137401019": {"id": "PH137401019", "name": "New Za\u00f1iga", "city": "CITY OF MANDALUYONG", "position": {"lat": 14.584279768900046, "lng": 121.02909714680008}, "color": "#dc2626", "value": 349000.0, "level": 7}, "PH137401020": {"id": "PH137401020", "name": "Old Za\u00f1iga", "city": "CITY OF MANDALUYONG", "position": {"lat": 14.582190444846207, "lng": 121.02507003184624}, "color": "#bbf7d0", "value": 209000.0, "level": 4}, "PH137401021": {"id": "PH137401021", "name": "Pag-asa", "city": "CITY OF MANDALUYONG", "position": {"lat": 14.589674668857185, "lng": 121.02515607628577}, "color": "gray", "value": 0}, "PH137401022": {"id": "PH137401022", "name": "Plainview", "city": "CITY OF MANDALUYONG", "position": {"lat": 14.576236968250043, "lng": 121.03564191575009}, "color": "#fecaca", "value": 294000.0, "level": 5}, "PH137401023": {"id": "PH137401023", "name": "Pleasant Hills", "city": "CITY OF MANDALUYONG", "position": {"lat": 14.5877015974546, "lng": 121.04210958100008}, "color": "#fecaca", "value": 272000.0, "level": 5}, "PH137401024": {"id": "PH137401024", "name": "Poblacion", "city": "CITY OF MANDALUYONG", "position": {"lat": 14.586202820090959, "lng": 121.02713805027282}, "color": "#4ade80", "value": 205000.0, "level": 3}, "PH137401025": {"id": "PH137401025", "name": "San Jose", "city": "CITY OF MANDALUYONG", "position": {"lat": 14.581382220900048, "lng": 121.02985284160005}, "color": "gray", "value": 0}, "PH137401026": {"id": "PH137401026", "name": "Vergara", "city": "CITY OF MANDALUYONG", "position": {"lat": 14.577367427500043, "lng": 121.02537320812509}, "color": "#fecaca", "value": 265000.0, "level": 5}, "PH137401027": {"id": "PH137401027", "name": "Wack-wack Greenhills", "city": "CITY OF MANDALUYONG", "position": {"lat": 14.591231827545506, "lng": 121.05283035163644}, "color": "#f87171", "value": 336000.0, "level": 6}, "PH137402001": {"id": "PH137402001", "name": "Barangka", "city": "CITY OF MARIKINA", "position": {"lat": 14.637386866545501, "lng": 121.0835656183637}, "color": "#16a34a", "value": 120000.0, "level": 2}, "PH137402002": {"id": "PH137402002", "name": "Calumpang", "city": "CITY OF MARIKINA", "position": {"lat": 14.624712697350049, "lng": 121.08844280245007}, "color": "#166534", "value": 111000.0, "level": 1}, "PH137402003": {"id": "PH137402003", "name": "Concepcion Uno", "city": "CITY OF MARIKINA", "position": {"lat": 14.653973659400048, "lng": 121.10571824652507}, "color": "#166534", "value": 94100.0, "level": 1}, "PH137402004": {"id": "PH137402004", "name": "Jesus De La Pe\u00f1a", "city": "CITY OF MARIKINA", "position": {"lat": 14.633426903789523, "lng": 121.09093788831586}, "color": "#052e16", "value": 36200.0, "level": 0}, "PH137402005": {"id": "PH137402005", "name": "Malanday", "city": "CITY OF MARIKINA", "position": {"lat": 14.648070205708379, "lng": 121.09264753416674}, "color": "#166534", "value": 73300.0, "level": 1}, "PH137402006": {"id": "PH137402006", "name": "Nangka", "city": "CITY OF MARIKINA", "position": {"lat": 14.669871646827634, "lng": 121.11082695779317}, "color": "#052e16", "value": 66000.0, "level": 0}, "PH137402007": {"id": "PH137402007", "name": "Parang", "city": "CITY OF MARIKINA", "position": {"lat": 14.661024121785761, "lng": 121.11383295950006}, "color": "#166534", "value": 74700.0, "level": 1}, "PH137402008": {"id": "PH137402008", "name": "San Roque", "city": "CITY OF MARIKINA", "position": {"lat": 14.626090110705935, "lng": 121.10061972352945}, "color": "#052e16", "value": 44400.0, "level": 0}, "PH137402009": {"id": "PH137402009", "name": "Santa Elena (Pob.)", "city": "CITY OF MARIKINA", "position": {"lat": 14.631794839818234, "lng": 121.10051660181824}, "color": "#052e16", "value": 65600.0, "level": 0}, "PH137402010": {"id": "PH137402010", "name": "Santo Ni\u00f1o", "city": "CITY OF MARIKINA", "position": {"lat": 14.638939724500048, "lng": 121.10085295737504}, "color": "#166534", "value": 76200.0, "level": 1}, "PH137402011": {"id": "PH137402011", "name": "Ta\u00f1ong", "city": "CITY OF MARIKINA", "position": {"lat": 14.630830727222271, "lng": 121.08731039211119}, "color": "#052e16", "value": 53800.0, "level": 0}, "PH137402012": {"id": "PH137402012", "name": "Concepcion Dos", "city": "CITY OF MARIKINA", "position": {"lat": 14.640106143903273, "lng": 121.12049968551618}, "color": "#166534", "value": 83200.0, "level": 1}, "PH137402013": {"id": "PH137402013", "name": "Marikina Heights (Concepcion)", "city": "CITY OF MARIKINA", "position": {"lat": 14.650452020433384, "lng": 121.12062971120002}, "color": "#166534", "value": 98300.0, "level": 1}, "PH137402014": {"id": "PH137402014", "name": "Industrial Valley", "city": "CITY OF MARIKINA", "position": {"lat": 14.625521982750048, "lng": 121.07845543818755}, "color": "#166534", "value": 110000.0, "level": 1}, "PH137402015": {"id": "PH137402015", "name": "Fortune", "city": "CITY OF MARIKINA", "position": {"lat": 14.660426187535764, "lng": 121.12716604457148}, "color": "#052e16", "value": 65800.0, "level": 0}, "PH137402016": {"id": "PH137402016", "name": "Tumana", "city": "CITY OF MARIKINA", "position": {"lat": 14.658929806000055, "lng": 121.0975235088183}, "color": "gray", "value": 0}, "PH137403001": {"id": "PH137403001", "name": "Bagong Ilog", "city": "CITY OF PASIG", "position": {"lat": 14.566594492000053, "lng": 121.06936812435004}, "color": "#bbf7d0", "value": 208000.0, "level": 4}, "PH137403002": {"id": "PH137403002", "name": "Bagong Katipunan", "city": "CITY OF PASIG", "position": {"lat": 14.558473935400036, "lng": 121.07511922440008}, "color": "gray", "value": 0}, "PH137403003": {"id": "PH137403003", "name": "Bambang", "city": "CITY OF PASIG", "position": {"lat": 14.555661467300045, "lng": 121.08069795130002}, "color": "gray", "value": 0}, "PH137403004": {"id": "PH137403004", "name": "Buting", "city": "CITY OF PASIG", "position": {"lat": 14.554467842833375, "lng": 121.06875964775008}, "color": "#166534", "value": 93900.0, "level": 1}, "PH137403005": {"id": "PH137403005", "name": "Caniogan", "city": "CITY OF PASIG", "position": {"lat": 14.570829969823581, "lng": 121.08022911805892}, "color": "#16a34a", "value": 123000.0, "level": 2}, "PH137403006": {"id": "PH137403006", "name": "Dela Paz", "city": "CITY OF PASIG", "position": {"lat": 14.61262188305268, "lng": 121.09848675957902}, "color": "#052e16", "value": 69100.0, "level": 0}, "PH137403007": {"id": "PH137403007", "name": "Kalawaan", "city": "CITY OF PASIG", "position": {"lat": 14.550629374555605, "lng": 121.0862100623334}, "color": "gray", "value": 0}, "PH137403008": {"id": "PH137403008", "name": "Kapasigan", "city": "CITY OF PASIG", "position": {"lat": 14.563051190333377, "lng": 121.07569170922231}, "color": "#166534", "value": 96700.0, "level": 1}, "PH137403009": {"id": "PH137403009", "name": "Kapitolyo", "city": "CITY OF PASIG", "position": {"lat": 14.571024931923118, "lng": 121.05898764907698}, "color": "#fecaca", "value": 258000.0, "level": 5}, "PH137403010": {"id": "PH137403010", "name": "Malinao", "city": "CITY OF PASIG", "position": {"lat": 14.558203411642902, "lng": 121.07933318142864}, "color": "gray", "value": 0}, "PH137403011": {"id": "PH137403011", "name": "Manggahan", "city": "CITY OF PASIG", "position": {"lat": 14.60210576629793, "lng": 121.09306219293622}, "color": "#166534", "value": 80300.0, "level": 1}, "PH137403012": {"id": "PH137403012", "name": "Maybunga", "city": "CITY OF PASIG", "position": {"lat": 14.575527717454598, "lng": 121.09105823127283}, "color": "#166534", "value": 96700.0, "level": 1}, "PH137403013": {"id": "PH137403013", "name": "Oranbo", "city": "CITY OF PASIG", "position": {"lat": 14.576261018250051, "lng": 121.06639119900007}, "color": "#bbf7d0", "value": 225000.0, "level": 4}, "PH137403014": {"id": "PH137403014", "name": "Palatiw", "city": "CITY OF PASIG", "position": {"lat": 14.56337122850005, "lng": 121.08544140821435}, "color": "#166534", "value": 77400.0, "level": 1}, "PH137403015": {"id": "PH137403015", "name": "Pinagbuhatan", "city": "CITY OF PASIG", "position": {"lat": 14.549828819166713, "lng": 121.09737687419056}, "color": "#16a34a", "value": 119000.0, "level": 2}, "PH137403016": {"id": "PH137403016", "name": "Pineda", "city": "CITY OF PASIG", "position": {"lat": 14.566240754750051, "lng": 121.05902873231253}, "color": "#16a34a", "value": 148000.0, "level": 2}, "PH137403017": {"id": "PH137403017", "name": "Rosario", "city": "CITY OF PASIG", "position": {"lat": 14.591367822176522, "lng": 121.09630782432362}, "color": "#16a34a", "value": 155000.0, "level": 2}, "PH137403018": {"id": "PH137403018", "name": "Sagad", "city": "CITY OF PASIG", "position": {"lat": 14.565247280800047, "lng": 121.07892250810009}, "color": "gray", "value": 0}, "PH137403019": {"id": "PH137403019", "name": "San Antonio", "city": "CITY OF PASIG", "position": {"lat": 14.583460163100057, "lng": 121.06123291220008}, "color": "#166534", "value": 89900.0, "level": 1}, "PH137403020": {"id": "PH137403020", "name": "San Joaquin", "city": "CITY OF PASIG", "position": {"lat": 14.551128259176517, "lng": 121.07624927617653}, "color": "#052e16", "value": 63300.0, "level": 0}, "PH137403021": {"id": "PH137403021", "name": "San Jose", "city": "CITY OF PASIG", "position": {"lat": 14.560513304555602, "lng": 121.07464363500009}, "color": "#16a34a", "value": 123000.0, "level": 2}, "PH137403022": {"id": "PH137403022", "name": "San Miguel", "city": "CITY OF PASIG", "position": {"lat": 14.566394953739177, "lng": 121.08931448108702}, "color": "#16a34a", "value": 118000.0, "level": 2}, "PH137403023": {"id": "PH137403023", "name": "San Nicolas (Pob.)", "city": "CITY OF PASIG", "position": {"lat": 14.56152520394122, "lng": 121.07959139205889}, "color": "#16a34a", "value": 123000.0, "level": 2}, "PH137403024": {"id": "PH137403024", "name": "Santa Cruz", "city": "CITY OF PASIG", "position": {"lat": 14.56298612540005, "lng": 121.07959098300005}, "color": "gray", "value": 0}, "PH137403025": {"id": "PH137403025", "name": "Santa Rosa", "city": "CITY OF PASIG", "position": {"lat": 14.558242278555598, "lng": 121.07027947477783}, "color": "gray", "value": 0}, "PH137403026": {"id": "PH137403026", "name": "Santo Tomas", "city": "CITY OF PASIG", "position": {"lat": 14.56306913308338, "lng": 121.08141150675006}, "color": "gray", "value": 0}, "PH137403027": {"id": "PH137403027", "name": "Santolan", "city": "CITY OF PASIG", "position": {"lat": 14.616114982800049, "lng": 121.08655394116003}, "color": "#16a34a", "value": 119000.0, "level": 2}, "PH137403028": {"id": "PH137403028", "name": "Sumilang", "city": "CITY OF PASIG", "position": {"lat": 14.55721787312504, "lng": 121.07353541950005}, "color": "gray", "value": 0}, "PH137403029": {"id": "PH137403029", "name": "Ugong", "city": "CITY OF PASIG", "position": {"lat": 14.582865861185237, "lng": 121.07324151118522}, "color": "#fecaca", "value": 296000.0, "level": 5}, "PH137403030": {"id": "PH137403030", "name": "Santa Lucia", "city": "CITY OF PASIG", "position": {"lat": 14.583872663875045, "lng": 121.10266354900007}, "color": "#166534", "value": 79400.0, "level": 1}, "PH137404001": {"id": "PH137404001", "name": "Alicia", "city": "QUEZON CITY", "position": {"lat": 14.661519342533381, "lng": 121.02477013000006}, "color": "#166534", "value": 113000.0, "level": 1}, "PH137404002": {"id": "PH137404002", "name": "Amihan", "city": "QUEZON CITY", "position": {"lat": 14.632484872727321, "lng": 121.0682698263637}, "color": "#fecaca", "value": 270000.0, "level": 5}, "PH137404003": {"id": "PH137404003", "name": "Apolonio Samson", "city": "QUEZON CITY", "position": {"lat": 14.655255384744732, "lng": 121.00917165763832}, "color": "#bbf7d0", "value": 217000.0, "level": 4}, "PH137404004": {"id": "PH137404004", "name": "Aurora", "city": "QUEZON CITY", "position": {"lat": 14.615657576363695, "lng": 121.00920174109098}, "color": "#f87171", "value": 313000.0, "level": 6}, "PH137404005": {"id": "PH137404005", "name": "Baesa", "city": "QUEZON CITY", "position": {"lat": 14.669172112750056, "lng": 121.01206240954552}, "color": "#166534", "value": 86000.0, "level": 1}, "PH137404006": {"id": "PH137404006", "name": "Bagbag", "city": "QUEZON CITY", "position": {"lat": 14.697318459597064, "lng": 121.03159209210456}, "color": "#166534", "value": 81700.0, "level": 1}, "PH137404007": {"id": "PH137404007", "name": "Bagumbuhay", "city": "QUEZON CITY", "position": {"lat": 14.624940961466718, "lng": 121.06521414020007}, "color": "#16a34a", "value": 145000.0, "level": 2}, "PH137404008": {"id": "PH137404008", "name": "Bagong Lipunan Ng Crame", "city": "QUEZON CITY", "position": {"lat": 14.611491050437554, "lng": 121.04946137675005}, "color": "#fecaca", "value": 255000.0, "level": 5}, "PH137404009": {"id": "PH137404009", "name": "Bagong Pag-asa", "city": "QUEZON CITY", "position": {"lat": 14.657032428894787, "lng": 121.03584458794742}, "color": "#16a34a", "value": 131000.0, "level": 2}, "PH137404010": {"id": "PH137404010", "name": "Bagong Silangan", "city": "QUEZON CITY", "position": {"lat": 14.711252228720046, "lng": 121.11495479739004}, "color": "#166534", "value": 104000.0, "level": 1}, "PH137404011": {"id": "PH137404011", "name": "Bagumbayan", "city": "QUEZON CITY", "position": {"lat": 14.605775841444492, "lng": 121.0818128508612}, "color": "#f87171", "value": 305000.0, "level": 6}, "PH137404012": {"id": "PH137404012", "name": "Bahay Toro", "city": "QUEZON CITY", "position": {"lat": 14.667155837146717, "lng": 121.02917297672}, "color": "#4ade80", "value": 178000.0, "level": 3}, "PH137404013": {"id": "PH137404013", "name": "Balingasa", "city": "QUEZON CITY", "position": {"lat": 14.650090931527835, "lng": 121.00271110430562}, "color": "#bbf7d0", "value": 217000.0, "level": 4}, "PH137404014": {"id": "PH137404014", "name": "Bayanihan", "city": "QUEZON CITY", "position": {"lat": 14.615677119888947, "lng": 121.06982033255564}, "color": "gray", "value": 0}, "PH137404015": {"id": "PH137404015", "name": "Blue Ridge A", "city": "QUEZON CITY", "position": {"lat": 14.618658115266715, "lng": 121.07372559080005}, "color": "#16a34a", "value": 135000.0, "level": 2}, "PH137404016": {"id": "PH137404016", "name": "Blue Ridge B", "city": "QUEZON CITY", "position": {"lat": 14.617887549416722, "lng": 121.07578127475007}, "color": "#16a34a", "value": 128000.0, "level": 2}, "PH137404017": {"id": "PH137404017", "name": "Botocan", "city": "QUEZON CITY", "position": {"lat": 14.638487271411812, "lng": 121.06412813817654}, "color": "#4ade80", "value": 185000.0, "level": 3}, "PH137404018": {"id": "PH137404018", "name": "Bungad", "city": "QUEZON CITY", "position": {"lat": 14.651620952307745, "lng": 121.02640619207698}, "color": "#16a34a", "value": 136000.0, "level": 2}, "PH137404019": {"id": "PH137404019", "name": "Camp Aguinaldo", "city": "QUEZON CITY", "position": {"lat": 14.60661395057148, "lng": 121.06412919171437}, "color": "#bbf7d0", "value": 239000.0, "level": 4}, "PH137404020": {"id": "PH137404020", "name": "Central", "city": "QUEZON CITY", "position": {"lat": 14.646618418606113, "lng": 121.0496850030001}, "color": "#bbf7d0", "value": 236000.0, "level": 4}, "PH137404021": {"id": "PH137404021", "name": "Claro", "city": "QUEZON CITY", "position": {"lat": 14.63168032970005, "lng": 121.06455877810006}, "color": "gray", "value": 0}, "PH137404022": {"id": "PH137404022", "name": "Commonwealth", "city": "QUEZON CITY", "position": {"lat": 14.69993756006672, "lng": 121.08567982086672}, "color": "#166534", "value": 109000.0, "level": 1}, "PH137404023": {"id": "PH137404023", "name": "New Era (Constitution Hills)", "city": "QUEZON CITY", "position": {"lat": 14.664579174720052, "lng": 121.05957845780006}, "color": "#bbf7d0", "value": 219000.0, "level": 4}, "PH137404024": {"id": "PH137404024", "name": "Kristong Hari", "city": "QUEZON CITY", "position": {"lat": 14.625332918380996, "lng": 121.0315996333334}, "color": "#dc2626", "value": 375000.0, "level": 7}, "PH137404025": {"id": "PH137404025", "name": "Culiat", "city": "QUEZON CITY", "position": {"lat": 14.665603879389879, "lng": 121.0536484974238}, "color": "#16a34a", "value": 153000.0, "level": 2}, "PH137404026": {"id": "PH137404026", "name": "Damar", "city": "QUEZON CITY", "position": {"lat": 14.647164447700046, "lng": 121.00116818480005}, "color": "gray", "value": 0}, "PH137404027": {"id": "PH137404027", "name": "Damayan", "city": "QUEZON CITY", "position": {"lat": 14.637365944272771, "lng": 121.01408285881824}, "color": "gray", "value": 0}, "PH137404028": {"id": "PH137404028", "name": "Damayang Lagi", "city": "QUEZON CITY", "position": {"lat": 14.61432661840005, "lng": 121.02336547888004}, "color": "#bbf7d0", "value": 212000.0, "level": 4}, "PH137404029": {"id": "PH137404029", "name": "Del Monte", "city": "QUEZON CITY", "position": {"lat": 14.64388639922227, "lng": 121.01406420633342}, "color": "#bbf7d0", "value": 239000.0, "level": 4}, "PH137404030": {"id": "PH137404030", "name": "Dioquino Zobel", "city": "QUEZON CITY", "position": {"lat": 14.620003772428626, "lng": 121.06493713200004}, "color": "gray", "value": 0}, "PH137404031": {"id": "PH137404031", "name": "Do\u00f1a Imelda", "city": "QUEZON CITY", "position": {"lat": 14.611833506709727, "lng": 121.01757035300005}, "color": "#16a34a", "value": 160000.0, "level": 2}, "PH137404032": {"id": "PH137404032", "name": "Do\u00f1a Josefa", "city": "QUEZON CITY", "position": {"lat": 14.619661460285768, "lng": 121.00719175971436}, "color": "#16a34a", "value": 126000.0, "level": 2}, "PH137404033": {"id": "PH137404033", "name": "Don Manuel", "city": "QUEZON CITY", "position": {"lat": 14.615709171555604, "lng": 121.00557504533339}, "color": "#bbf7d0", "value": 233000.0, "level": 4}, "PH137404034": {"id": "PH137404034", "name": "Duyan-duyan", "city": "QUEZON CITY", "position": {"lat": 14.630132731250043, "lng": 121.06797935516674}, "color": "#16a34a", "value": 127000.0, "level": 2}, "PH137404035": {"id": "PH137404035", "name": "E. Rodriguez", "city": "QUEZON CITY", "position": {"lat": 14.628229475166721, "lng": 121.05230965688897}, "color": "#bbf7d0", "value": 216000.0, "level": 4}, "PH137404036": {"id": "PH137404036", "name": "East Kamias", "city": "QUEZON CITY", "position": {"lat": 14.631764886866714, "lng": 121.05625910053338}, "color": "#4ade80", "value": 185000.0, "level": 3}, "PH137404037": {"id": "PH137404037", "name": "Escopa I", "city": "QUEZON CITY", "position": {"lat": 14.624355851333377, "lng": 121.07356637033342}, "color": "#16a34a", "value": 155000.0, "level": 2}, "PH137404038": {"id": "PH137404038", "name": "Escopa II", "city": "QUEZON CITY", "position": {"lat": 14.624249333555598, "lng": 121.07442385922228}, "color": "gray", "value": 0}, "PH137404039": {"id": "PH137404039", "name": "Escopa III", "city": "QUEZON CITY", "position": {"lat": 14.626780659000056, "lng": 121.07352522411118}, "color": "gray", "value": 0}, "PH137404040": {"id": "PH137404040", "name": "Escopa IV", "city": "QUEZON CITY", "position": {"lat": 14.625537342000053, "lng": 121.07443646000004}, "color": "gray", "value": 0}, "PH137404041": {"id": "PH137404041", "name": "Fairview", "city": "QUEZON CITY", "position": {"lat": 14.703882355975049, "lng": 121.06916554927511}, "color": "#166534", "value": 86700.0, "level": 1}, "PH137404042": {"id": "PH137404042", "name": "N.S. Amoranto (Gintong Silahis)", "city": "QUEZON CITY", "position": {"lat": 14.633532703375046, "lng": 120.99379220600005}, "color": "#fecaca", "value": 299000.0, "level": 5}, "PH137404043": {"id": "PH137404043", "name": "Gulod", "city": "QUEZON CITY", "position": {"lat": 14.711753471642904, "lng": 121.04113181428573}, "color": "gray", "value": 0}, "PH137404044": {"id": "PH137404044", "name": "Horseshoe", "city": "QUEZON CITY", "position": {"lat": 14.6125017858572, "lng": 121.04186397380961}, "color": "#f87171", "value": 342000.0, "level": 6}, "PH137404045": {"id": "PH137404045", "name": "Immaculate Concepcion", "city": "QUEZON CITY", "position": {"lat": 14.622596305250049, "lng": 121.04367814106257}, "color": "#f87171", "value": 312000.0, "level": 6}, "PH137404046": {"id": "PH137404046", "name": "Kaligayahan", "city": "QUEZON CITY", "position": {"lat": 14.733185173000049, "lng": 121.04344373315912}, "color": "#052e16", "value": 70500.0, "level": 0}, "PH137404047": {"id": "PH137404047", "name": "Kalusugan", "city": "QUEZON CITY", "position": {"lat": 14.623611406666715, "lng": 121.02067251166673}, "color": "#4ade80", "value": 167000.0, "level": 3}, "PH137404048": {"id": "PH137404048", "name": "Kamuning", "city": "QUEZON CITY", "position": {"lat": 14.627631483500048, "lng": 121.04114185264292}, "color": "#bbf7d0", "value": 217000.0, "level": 4}, "PH137404049": {"id": "PH137404049", "name": "Katipunan", "city": "QUEZON CITY", "position": {"lat": 14.655994747300047, "lng": 121.01708585500005}, "color": "#4ade80", "value": 192000.0, "level": 3}, "PH137404050": {"id": "PH137404050", "name": "Kaunlaran", "city": "QUEZON CITY", "position": {"lat": 14.61597172921058, "lng": 121.0441952083685}, "color": "#bbf7d0", "value": 221000.0, "level": 4}, "PH137404051": {"id": "PH137404051", "name": "Krus Na Ligas", "city": "QUEZON CITY", "position": {"lat": 14.643103045538506, "lng": 121.06279657284621}, "color": "#4ade80", "value": 182000.0, "level": 3}, "PH137404052": {"id": "PH137404052", "name": "Laging Handa", "city": "QUEZON CITY", "position": {"lat": 14.633245197333395, "lng": 121.03097036583341}, "color": "#bbf7d0", "value": 250000.0, "level": 4}, "PH137404053": {"id": "PH137404053", "name": "Libis", "city": "QUEZON CITY", "position": {"lat": 14.616333539500053, "lng": 121.07713362407146}, "color": "#fecaca", "value": 282000.0, "level": 5}, "PH137404054": {"id": "PH137404054", "name": "Lourdes", "city": "QUEZON CITY", "position": {"lat": 14.62597846980005, "lng": 121.00201189420007}, "color": "#dc2626", "value": 356000.0, "level": 7}, "PH137404055": {"id": "PH137404055", "name": "Loyola Heights", "city": "QUEZON CITY", "position": {"lat": 14.63829322264449, "lng": 121.07452509217786}, "color": "#16a34a", "value": 153000.0, "level": 2}, "PH137404056": {"id": "PH137404056", "name": "Maharlika", "city": "QUEZON CITY", "position": {"lat": 14.633688065444492, "lng": 120.99688623500005}, "color": "#f87171", "value": 330000.0, "level": 6}, "PH137404057": {"id": "PH137404057", "name": "Malaya", "city": "QUEZON CITY", "position": {"lat": 14.636071398454595, "lng": 121.05573968018193}, "color": "gray", "value": 0}, "PH137404058": {"id": "PH137404058", "name": "Manresa", "city": "QUEZON CITY", "position": {"lat": 14.642565297466714, "lng": 121.00289634900007}, "color": "#fecaca", "value": 263000.0, "level": 5}, "PH137404059": {"id": "PH137404059", "name": "Mangga", "city": "QUEZON CITY", "position": {"lat": 14.625554475428626, "lng": 121.06246068014295}, "color": "gray", "value": 0}, "PH137404060": {"id": "PH137404060", "name": "Mariana", "city": "QUEZON CITY", "position": {"lat": 14.618641710947415, "lng": 121.03376679357899}, "color": "#f87171", "value": 329000.0, "level": 6}, "PH137404061": {"id": "PH137404061", "name": "Mariblo", "city": "QUEZON CITY", "position": {"lat": 14.63450486325005, "lng": 121.01647485956256}, "color": "#4ade80", "value": 174000.0, "level": 3}, "PH137404062": {"id": "PH137404062", "name": "Marilag", "city": "QUEZON CITY", "position": {"lat": 14.625064811647102, "lng": 121.07030491817653}, "color": "#166534", "value": 102000.0, "level": 1}, "PH137404063": {"id": "PH137404063", "name": "Masagana", "city": "QUEZON CITY", "position": {"lat": 14.618697982818235, "lng": 121.06681652790913}, "color": "#16a34a", "value": 125000.0, "level": 2}, "PH137404064": {"id": "PH137404064", "name": "Masambong", "city": "QUEZON CITY", "position": {"lat": 14.642817621933382, "lng": 121.00904695753339}, "color": "#4ade80", "value": 167000.0, "level": 3}, "PH137404065": {"id": "PH137404065", "name": "Santo Domingo (Matalahib)", "city": "QUEZON CITY", "position": {"lat": 14.630773465923124, "lng": 121.00907699600008}, "color": "gray", "value": 0}, "PH137404066": {"id": "PH137404066", "name": "Matandang Balara", "city": "QUEZON CITY", "position": {"lat": 14.670529801870417, "lng": 121.08398685948157}, "color": "#4ade80", "value": 199000.0, "level": 3}, "PH137404067": {"id": "PH137404067", "name": "Milagrosa", "city": "QUEZON CITY", "position": {"lat": 14.620858295857188, "lng": 121.06916473771435}, "color": "#166534", "value": 106000.0, "level": 1}, "PH137404068": {"id": "PH137404068", "name": "Nagkaisang Nayon", "city": "QUEZON CITY", "position": {"lat": 14.717587270125055, "lng": 121.02491489503757}, "color": "#052e16", "value": 64800.0, "level": 0}, "PH137404069": {"id": "PH137404069", "name": "Nayong Kanluran", "city": "QUEZON CITY", "position": {"lat": 14.640256888250056, "lng": 121.02468889866672}, "color": "#4ade80", "value": 185000.0, "level": 3}, "PH137404070": {"id": "PH137404070", "name": "Novaliches Proper", "city": "QUEZON CITY", "position": {"lat": 14.721092254642912, "lng": 121.03745144850004}, "color": "#166534", "value": 83300.0, "level": 1}, "PH137404071": {"id": "PH137404071", "name": "Obrero", "city": "QUEZON CITY", "position": {"lat": 14.62753735409096, "lng": 121.03083140463642}, "color": "#bbf7d0", "value": 250000.0, "level": 4}, "PH137404072": {"id": "PH137404072", "name": "Old Capitol Site", "city": "QUEZON CITY", "position": {"lat": 14.650698675200049, "lng": 121.05323769140004}, "color": "#bbf7d0", "value": 208000.0, "level": 4}, "PH137404073": {"id": "PH137404073", "name": "Paang Bundok", "city": "QUEZON CITY", "position": {"lat": 14.62814362100005, "lng": 120.99230391900005}, "color": "gray", "value": 0}, "PH137404074": {"id": "PH137404074", "name": "Pag-ibig Sa Nayon", "city": "QUEZON CITY", "position": {"lat": 14.647303925238148, "lng": 120.99760761080957}, "color": "#16a34a", "value": 136000.0, "level": 2}, "PH137404075": {"id": "PH137404075", "name": "Paligsahan", "city": "QUEZON CITY", "position": {"lat": 14.63311249140006, "lng": 121.02392913860008}, "color": "#4ade80", "value": 190000.0, "level": 3}, "PH137404076": {"id": "PH137404076", "name": "Paltok", "city": "QUEZON CITY", "position": {"lat": 14.64234090366672, "lng": 121.02342529211117}, "color": "#4ade80", "value": 180000.0, "level": 3}, "PH137404077": {"id": "PH137404077", "name": "Pansol", "city": "QUEZON CITY", "position": {"lat": 14.654755668410766, "lng": 121.08381312851789}, "color": "#16a34a", "value": 123000.0, "level": 2}, "PH137404078": {"id": "PH137404078", "name": "Paraiso", "city": "QUEZON CITY", "position": {"lat": 14.637881394083385, "lng": 121.0179218430834}, "color": "gray", "value": 0}, "PH137404079": {"id": "PH137404079", "name": "Pasong Putik Proper (Pasong Putik)", "city": "QUEZON CITY", "position": {"lat": 14.742272679850872, "lng": 121.09761013080119}, "color": "#166534", "value": 88400.0, "level": 1}, "PH137404080": {"id": "PH137404080", "name": "Pasong Tamo", "city": "QUEZON CITY", "position": {"lat": 14.680308966738153, "lng": 121.05551789942862}, "color": "#166534", "value": 99800.0, "level": 1}, "PH137404081": {"id": "PH137404081", "name": "Phil-Am", "city": "QUEZON CITY", "position": {"lat": 14.647385272000056, "lng": 121.03133751116677}, "color": "#bbf7d0", "value": 222000.0, "level": 4}, "PH137404082": {"id": "PH137404082", "name": "Pinyahan", "city": "QUEZON CITY", "position": {"lat": 14.639052490041715, "lng": 121.04934791666676}, "color": "#bbf7d0", "value": 239000.0, "level": 4}, "PH137404083": {"id": "PH137404083", "name": "Pinagkaisahan", "city": "QUEZON CITY", "position": {"lat": 14.626285218769292, "lng": 121.04392887592313}, "color": "#fecaca", "value": 280000.0, "level": 5}, "PH137404084": {"id": "PH137404084", "name": "Project 6", "city": "QUEZON CITY", "position": {"lat": 14.658063826640053, "lng": 121.04071028336004}, "color": "#166534", "value": 116000.0, "level": 1}, "PH137404085": {"id": "PH137404085", "name": "Quirino 2-A", "city": "QUEZON CITY", "position": {"lat": 14.629589730933379, "lng": 121.05938479106675}, "color": "#16a34a", "value": 139000.0, "level": 2}, "PH137404086": {"id": "PH137404086", "name": "Quirino 2-B", "city": "QUEZON CITY", "position": {"lat": 14.631950128250054, "lng": 121.06202677600005}, "color": "#166534", "value": 101000.0, "level": 1}, "PH137404087": {"id": "PH137404087", "name": "Quirino 2-C", "city": "QUEZON CITY", "position": {"lat": 14.635255846111155, "lng": 121.06281267800007}, "color": "#4ade80", "value": 189000.0, "level": 3}, "PH137404088": {"id": "PH137404088", "name": "Quirino 3-A", "city": "QUEZON CITY", "position": {"lat": 14.628856511500054, "lng": 121.06338949512505}, "color": "#16a34a", "value": 119000.0, "level": 2}, "PH137404089": {"id": "PH137404089", "name": "Ramon Magsaysay", "city": "QUEZON CITY", "position": {"lat": 14.660078164157943, "lng": 121.02321775552635}, "color": "#4ade80", "value": 175000.0, "level": 3}, "PH137404090": {"id": "PH137404090", "name": "Roxas", "city": "QUEZON CITY", "position": {"lat": 14.627159486800048, "lng": 121.02190764415002}, "color": "#4ade80", "value": 204000.0, "level": 3}, "PH137404091": {"id": "PH137404091", "name": "Sacred Heart", "city": "QUEZON CITY", "position": {"lat": 14.631252843833371, "lng": 121.03977789566672}, "color": "#fecaca", "value": 259000.0, "level": 5}, "PH137404092": {"id": "PH137404092", "name": "Saint Ignatius", "city": "QUEZON CITY", "position": {"lat": 14.614023227000049, "lng": 121.07315926936371}, "color": "#16a34a", "value": 162000.0, "level": 2}, "PH137404093": {"id": "PH137404093", "name": "Saint Peter", "city": "QUEZON CITY", "position": {"lat": 14.63381243585719, "lng": 121.0003994448572}, "color": "#fecaca", "value": 284000.0, "level": 5}, "PH137404094": {"id": "PH137404094", "name": "Salvacion", "city": "QUEZON CITY", "position": {"lat": 14.627544915000044, "lng": 120.9948262235715}, "color": "#bbf7d0", "value": 221000.0, "level": 4}, "PH137404095": {"id": "PH137404095", "name": "San Agustin", "city": "QUEZON CITY", "position": {"lat": 14.729729257233377, "lng": 121.03463223515011}, "color": "#052e16", "value": 70000.0, "level": 0}, "PH137404096": {"id": "PH137404096", "name": "San Antonio", "city": "QUEZON CITY", "position": {"lat": 14.650307360750048, "lng": 121.01605774730008}, "color": "#166534", "value": 113000.0, "level": 1}, "PH137404097": {"id": "PH137404097", "name": "San Bartolome", "city": "QUEZON CITY", "position": {"lat": 14.706017306421101, "lng": 121.03131229102641}, "color": "#166534", "value": 79300.0, "level": 1}, "PH137404098": {"id": "PH137404098", "name": "San Isidro", "city": "QUEZON CITY", "position": {"lat": 14.613525754625051, "lng": 121.00803830462507}, "color": "gray", "value": 0}, "PH137404099": {"id": "PH137404099", "name": "San Isidro Labrador", "city": "QUEZON CITY", "position": {"lat": 14.62367901180006, "lng": 120.99677121420004}, "color": "gray", "value": 0}, "PH137404100": {"id": "PH137404100", "name": "San Jose", "city": "QUEZON CITY", "position": {"lat": 14.639767153300056, "lng": 120.99367926650007}, "color": "gray", "value": 0}, "PH137404101": {"id": "PH137404101", "name": "San Martin De Porres", "city": "QUEZON CITY", "position": {"lat": 14.617433000181874, "lng": 121.0496003453637}, "color": "gray", "value": 0}, "PH137404102": {"id": "PH137404102", "name": "San Roque", "city": "QUEZON CITY", "position": {"lat": 14.619101367833386, "lng": 121.06321954691676}, "color": "gray", "value": 0}, "PH137404103": {"id": "PH137404103", "name": "San Vicente", "city": "QUEZON CITY", "position": {"lat": 14.652737687153905, "lng": 121.05635133369239}, "color": "gray", "value": 0}, "PH137404104": {"id": "PH137404104", "name": "Santa Cruz", "city": "QUEZON CITY", "position": {"lat": 14.634909024227328, "lng": 121.01918870286373}, "color": "gray", "value": 0}, "PH137404105": {"id": "PH137404105", "name": "Santa Lucia", "city": "QUEZON CITY", "position": {"lat": 14.706655570172462, "lng": 121.05096716020692}, "color": "gray", "value": 0}, "PH137404106": {"id": "PH137404106", "name": "Santa Monica", "city": "QUEZON CITY", "position": {"lat": 14.718200509634663, "lng": 121.04588915634619}, "color": "gray", "value": 0}, "PH137404107": {"id": "PH137404107", "name": "Santa Teresita", "city": "QUEZON CITY", "position": {"lat": 14.620316531428614, "lng": 121.00090149142862}, "color": "gray", "value": 0}, "PH137404108": {"id": "PH137404108", "name": "Santo Cristo", "city": "QUEZON CITY", "position": {"lat": 14.660912146250055, "lng": 121.02899451175003}, "color": "gray", "value": 0}, "PH137404109": {"id": "PH137404109", "name": "Santo Ni\u00f1o", "city": "QUEZON CITY", "position": {"lat": 14.611009319000056, "lng": 121.01198874470008}, "color": "gray", "value": 0}, "PH137404110": {"id": "PH137404110", "name": "Santol", "city": "QUEZON CITY", "position": {"lat": 14.609496567714334, "lng": 121.01574694178576}, "color": "gray", "value": 0}, "PH137404111": {"id": "PH137404111", "name": "Sauyo", "city": "QUEZON CITY", "position": {"lat": 14.695012631319493, "lng": 121.04414065206954}, "color": "gray", "value": 0}, "PH137404112": {"id": "PH137404112", "name": "Sienna", "city": "QUEZON CITY", "position": {"lat": 14.636244945000044, "lng": 121.00593612700006}, "color": "#4ade80", "value": 179000.0, "level": 3}, "PH137404113": {"id": "PH137404113", "name": "Sikatuna Village", "city": "QUEZON CITY", "position": {"lat": 14.638381365352991, "lng": 121.05922793123534}, "color": "#bbf7d0", "value": 236000.0, "level": 4}, "PH137404114": {"id": "PH137404114", "name": "Silangan", "city": "QUEZON CITY", "position": {"lat": 14.628386817562554, "lng": 121.05898378881258}, "color": "gray", "value": 0}, "PH137404115": {"id": "PH137404115", "name": "Socorro", "city": "QUEZON CITY", "position": {"lat": 14.617356677250044, "lng": 121.05682183737508}, "color": "#fecaca", "value": 290000.0, "level": 5}, "PH137404116": {"id": "PH137404116", "name": "South Triangle", "city": "QUEZON CITY", "position": {"lat": 14.636357896857191, "lng": 121.0349716928572}, "color": "#bbf7d0", "value": 246000.0, "level": 4}, "PH137404117": {"id": "PH137404117", "name": "Tagumpay", "city": "QUEZON CITY", "position": {"lat": 14.622203107800056, "lng": 121.06431999270008}, "color": "gray", "value": 0}, "PH137404118": {"id": "PH137404118", "name": "Talayan", "city": "QUEZON CITY", "position": {"lat": 14.63458702530005, "lng": 121.01204245475006}, "color": "gray", "value": 0}, "PH137404119": {"id": "PH137404119", "name": "Talipapa", "city": "QUEZON CITY", "position": {"lat": 14.686159786285762, "lng": 121.0255157918334}, "color": "gray", "value": 0}, "PH137404120": {"id": "PH137404120", "name": "Tandang Sora", "city": "QUEZON CITY", "position": {"lat": 14.680742834902832, "lng": 121.0374425141528}, "color": "#16a34a", "value": 137000.0, "level": 2}, "PH137404121": {"id": "PH137404121", "name": "Tatalon", "city": "QUEZON CITY", "position": {"lat": 14.623729718400046, "lng": 121.01596747135008}, "color": "gray", "value": 0}, "PH137404122": {"id": "PH137404122", "name": "Teachers Village East", "city": "QUEZON CITY", "position": {"lat": 14.64481783276928, "lng": 121.05905031969239}, "color": "#bbf7d0", "value": 221000.0, "level": 4}, "PH137404123": {"id": "PH137404123", "name": "Teachers Village West", "city": "QUEZON CITY", "position": {"lat": 14.642932007375055, "lng": 121.05613812156257}, "color": "#bbf7d0", "value": 220000.0, "level": 4}, "PH137404124": {"id": "PH137404124", "name": "U.P. Campus", "city": "QUEZON CITY", "position": {"lat": 14.651944904052682, "lng": 121.06309136664925}, "color": "gray", "value": 0}, "PH137404125": {"id": "PH137404125", "name": "U.P. Village", "city": "QUEZON CITY", "position": {"lat": 14.649078564619096, "lng": 121.05625325500007}, "color": "gray", "value": 0}, "PH137404126": {"id": "PH137404126", "name": "Ugong Norte", "city": "QUEZON CITY", "position": {"lat": 14.596489229393992, "lng": 121.07293620357582}, "color": "#f87171", "value": 311000.0, "level": 6}, "PH137404127": {"id": "PH137404127", "name": "Unang Sigaw", "city": "QUEZON CITY", "position": {"lat": 14.660186785928627, "lng": 121.00099384842868}, "color": "#16a34a", "value": 128000.0, "level": 2}, "PH137404128": {"id": "PH137404128", "name": "Valencia", "city": "QUEZON CITY", "position": {"lat": 14.610240103500049, "lng": 121.03743971640915}, "color": "#bbf7d0", "value": 238000.0, "level": 4}, "PH137404129": {"id": "PH137404129", "name": "Vasra", "city": "QUEZON CITY", "position": {"lat": 14.657714366379363, "lng": 121.04740233879316}, "color": "gray", "value": 0}, "PH137404130": {"id": "PH137404130", "name": "Veterans Village", "city": "QUEZON CITY", "position": {"lat": 14.653948556533381, "lng": 121.0239314971334}, "color": "gray", "value": 0}, "PH137404131": {"id": "PH137404131", "name": "Villa Maria Clara", "city": "QUEZON CITY", "position": {"lat": 14.616666529833386, "lng": 121.0689374938334}, "color": "gray", "value": 0}, "PH137404132": {"id": "PH137404132", "name": "West Kamias", "city": "QUEZON CITY", "position": {"lat": 14.62997728410005, "lng": 121.05008614530007}, "color": "gray", "value": 0}, "PH137404133": {"id": "PH137404133", "name": "West Triangle", "city": "QUEZON CITY", "position": {"lat": 14.644517806714342, "lng": 121.03119992342863}, "color": "#bbf7d0", "value": 213000.0, "level": 4}, "PH137404134": {"id": "PH137404134", "name": "White Plains", "city": "QUEZON CITY", "position": {"lat": 14.605436105571483, "lng": 121.0740064755001}, "color": "#fecaca", "value": 256000.0, "level": 5}, "PH137404135": {"id": "PH137404135", "name": "Balong Bato", "city": "QUEZON CITY", "position": {"lat": 14.662908034800045, "lng": 121.00312745700006}, "color": "#166534", "value": 95200.0, "level": 1}, "PH137404136": {"id": "PH137404136", "name": "Capri", "city": "QUEZON CITY", "position": {"lat": 14.716560833400042, "lng": 121.02843149470004}, "color": "gray", "value": 0}, "PH137404137": {"id": "PH137404137", "name": "Sangandaan", "city": "QUEZON CITY", "position": {"lat": 14.67465671504172, "lng": 121.02188227941672}, "color": "gray", "value": 0}, "PH137404138": {"id": "PH137404138", "name": "Payatas", "city": "QUEZON CITY", "position": {"lat": 14.710840920450059, "lng": 121.09964412821675}, "color": "#052e16", "value": 69400.0, "level": 0}, "PH137404139": {"id": "PH137404139", "name": "Batasan Hills", "city": "QUEZON CITY", "position": {"lat": 14.68397553678952, "lng": 121.09809722478956}, "color": "gray", "value": 0}, "PH137404140": {"id": "PH137404140", "name": "Holy Spirit", "city": "QUEZON CITY", "position": {"lat": 14.684832037093802, "lng": 121.07771487893754}, "color": "#4ade80", "value": 185000.0, "level": 3}, "PH137404141": {"id": "PH137404141", "name": "Greater Lagro", "city": "QUEZON CITY", "position": {"lat": 14.720660905318237, "lng": 121.0655089269849}, "color": "gray", "value": 0}, "PH137404142": {"id": "PH137404142", "name": "North Fairview", "city": "QUEZON CITY", "position": {"lat": 14.712692389428623, "lng": 121.06162128052385}, "color": "gray", "value": 0}, "PH137405001": {"id": "PH137405001", "name": "Addition Hills", "city": "CITY OF SAN JUAN", "position": {"lat": 14.59398610170005, "lng": 121.03814724955005}, "color": "#f87171", "value": 336000.0, "level": 6}, "PH137405002": {"id": "PH137405002", "name": "Balong-Bato", "city": "CITY OF SAN JUAN", "position": {"lat": 14.608479295400048, "lng": 121.02586841010009}, "color": "#4ade80", "value": 206000.0, "level": 3}, "PH137405003": {"id": "PH137405003", "name": "Batis", "city": "CITY OF SAN JUAN", "position": {"lat": 14.600518286642918, "lng": 121.02550826950007}, "color": "#fecaca", "value": 292000.0, "level": 5}, "PH137405004": {"id": "PH137405004", "name": "Corazon De Jesus", "city": "CITY OF SAN JUAN", "position": {"lat": 14.60607501878266, "lng": 121.03190842717397}, "color": "#dc2626", "value": 371000.0, "level": 7}, "PH137405005": {"id": "PH137405005", "name": "Ermita\u00f1o", "city": "CITY OF SAN JUAN", "position": {"lat": 14.611509081583387, "lng": 121.03021569366672}, "color": "gray", "value": 0}, "PH137405006": {"id": "PH137405006", "name": "Halo-halo (St. Joseph)", "city": "CITY OF SAN JUAN", "position": {"lat": 14.602954567857191, "lng": 121.03234431300005}, "color": "gray", "value": 0}, "PH137405007": {"id": "PH137405007", "name": "Isabelita", "city": "CITY OF SAN JUAN", "position": {"lat": 14.602719495625045, "lng": 121.03086756737507}, "color": "#dc2626", "value": 382000.0, "level": 7}, "PH137405008": {"id": "PH137405008", "name": "Kabayanan", "city": "CITY OF SAN JUAN", "position": {"lat": 14.596984152187545, "lng": 121.02957415281256}, "color": "#f87171", "value": 300000.0, "level": 6}, "PH137405009": {"id": "PH137405009", "name": "Little Baguio", "city": "CITY OF SAN JUAN", "position": {"lat": 14.601942341041722, "lng": 121.0379445252501}, "color": "#dc2626", "value": 365000.0, "level": 7}, "PH137405010": {"id": "PH137405010", "name": "Maytunas", "city": "CITY OF SAN JUAN", "position": {"lat": 14.594816514937548, "lng": 121.03331076750007}, "color": "#fecaca", "value": 280000.0, "level": 5}, "PH137405011": {"id": "PH137405011", "name": "Onse", "city": "CITY OF SAN JUAN", "position": {"lat": 14.601090049538506, "lng": 121.03224059069235}, "color": "#f87171", "value": 339000.0, "level": 6}, "PH137405012": {"id": "PH137405012", "name": "Pasade\u00f1a", "city": "CITY OF SAN JUAN", "position": {"lat": 14.607697059500055, "lng": 121.03461234122233}, "color": "#991b1b", "value": 431000.0, "level": 8}, "PH137405013": {"id": "PH137405013", "name": "Pedro Cruz", "city": "CITY OF SAN JUAN", "position": {"lat": 14.60508085084621, "lng": 121.0262956891539}, "color": "#991b1b", "value": 430000.0, "level": 8}, "PH137405014": {"id": "PH137405014", "name": "Progreso", "city": "CITY OF SAN JUAN", "position": {"lat": 14.603295168142902, "lng": 121.02065135514293}, "color": "#16a34a", "value": 154000.0, "level": 2}, "PH137405015": {"id": "PH137405015", "name": "Rivera", "city": "CITY OF SAN JUAN", "position": {"lat": 14.605660111428636, "lng": 121.02224588371432}, "color": "gray", "value": 0}, "PH137405016": {"id": "PH137405016", "name": "Salapan", "city": "CITY OF SAN JUAN", "position": {"lat": 14.611577892153893, "lng": 121.02448688153851}, "color": "gray", "value": 0}, "PH137405017": {"id": "PH137405017", "name": "San Perfecto", "city": "CITY OF SAN JUAN", "position": {"lat": 14.603509097250061, "lng": 121.02365250162505}, "color": "#dc2626", "value": 355000.0, "level": 7}, "PH137405018": {"id": "PH137405018", "name": "Santa Lucia", "city": "CITY OF SAN JUAN", "position": {"lat": 14.598248325800057, "lng": 121.03436457706674}, "color": "#f87171", "value": 317000.0, "level": 6}, "PH137405019": {"id": "PH137405019", "name": "Tibagan", "city": "CITY OF SAN JUAN", "position": {"lat": 14.601574508500054, "lng": 121.02940118725007}, "color": "#bbf7d0", "value": 218000.0, "level": 4}, "PH137405020": {"id": "PH137405020", "name": "West Crame", "city": "CITY OF SAN JUAN", "position": {"lat": 14.606564311800048, "lng": 121.04885243230005}, "color": "#fecaca", "value": 259000.0, "level": 5}, "PH137405021": {"id": "PH137405021", "name": "Greenhills", "city": "CITY OF SAN JUAN", "position": {"lat": 14.60271882746159, "lng": 121.04495740394883}, "color": "#dc2626", "value": 371000.0, "level": 7}, "PH137502001": {"id": "PH137502001", "name": "Acacia", "city": "CITY OF MALABON", "position": {"lat": 14.667500842000045, "lng": 120.96996843255562}, "color": "#166534", "value": 104000.0, "level": 1}, "PH137502002": {"id": "PH137502002", "name": "Baritan", "city": "CITY OF MALABON", "position": {"lat": 14.672060601250038, "lng": 120.94775647525007}, "color": "#166534", "value": 104000.0, "level": 1}, "PH137502003": {"id": "PH137502003", "name": "Bayan-bayanan", "city": "CITY OF MALABON", "position": {"lat": 14.675761584142906, "lng": 120.94597466200004}, "color": "#166534", "value": 104000.0, "level": 1}, "PH137502004": {"id": "PH137502004", "name": "Catmon", "city": "CITY OF MALABON", "position": {"lat": 14.66973742825005, "lng": 120.96022426815004}, "color": "#166534", "value": 104000.0, "level": 1}, "PH137502005": {"id": "PH137502005", "name": "Concepcion", "city": "CITY OF MALABON", "position": {"lat": 14.669046249538509, "lng": 120.95041271423085}, "color": "#166534", "value": 104000.0, "level": 1}, "PH137502006": {"id": "PH137502006", "name": "Dampalit", "city": "CITY OF MALABON", "position": {"lat": 14.687986786833383, "lng": 120.93932089223341}, "color": "#166534", "value": 104000.0, "level": 1}, "PH137502007": {"id": "PH137502007", "name": "Flores", "city": "CITY OF MALABON", "position": {"lat": 14.674908485714338, "lng": 120.94255171671433}, "color": "#166534", "value": 104000.0, "level": 1}, "PH137502008": {"id": "PH137502008", "name": "Hulong Duhat", "city": "CITY OF MALABON", "position": {"lat": 14.679778186923128, "lng": 120.94091827600006}, "color": "#166534", "value": 104000.0, "level": 1}, "PH137502009": {"id": "PH137502009", "name": "Ibaba", "city": "CITY OF MALABON", "position": {"lat": 14.66451412570006, "lng": 120.95113468600007}, "color": "#166534", "value": 104000.0, "level": 1}, "PH137502010": {"id": "PH137502010", "name": "Longos", "city": "CITY OF MALABON", "position": {"lat": 14.653972233235342, "lng": 120.96019036041183}, "color": "#166534", "value": 104000.0, "level": 1}, "PH137502011": {"id": "PH137502011", "name": "Maysilo", "city": "CITY OF MALABON", "position": {"lat": 14.677993073705935, "lng": 120.95995158441183}, "color": "#166534", "value": 104000.0, "level": 1}, "PH137502012": {"id": "PH137502012", "name": "Muzon", "city": "CITY OF MALABON", "position": {"lat": 14.674799381666707, "lng": 120.95072547508339}, "color": "#166534", "value": 104000.0, "level": 1}, "PH137502013": {"id": "PH137502013", "name": "Niugan", "city": "CITY OF MALABON", "position": {"lat": 14.665916952538518, "lng": 120.95561996630778}, "color": "#166534", "value": 104000.0, "level": 1}, "PH137502014": {"id": "PH137502014", "name": "Panghulo", "city": "CITY OF MALABON", "position": {"lat": 14.684241036381003, "lng": 120.9519015168096}, "color": "#166534", "value": 104000.0, "level": 1}, "PH137502015": {"id": "PH137502015", "name": "Potrero", "city": "CITY OF MALABON", "position": {"lat": 14.668988230589788, "lng": 120.98495832692315}, "color": "#166534", "value": 104000.0, "level": 1}, "PH137502016": {"id": "PH137502016", "name": "San Agustin", "city": "CITY OF MALABON", "position": {"lat": 14.660976507000049, "lng": 120.95212500466675}, "color": "#166534", "value": 104000.0, "level": 1}, "PH137502017": {"id": "PH137502017", "name": "Santolan", "city": "CITY OF MALABON", "position": {"lat": 14.68965811992312, "lng": 120.95819851053852}, "color": "#166534", "value": 104000.0, "level": 1}, "PH137502018": {"id": "PH137502018", "name": "Ta\u00f1ong (Pob.)", "city": "CITY OF MALABON", "position": {"lat": 14.655926994076971, "lng": 120.95298380353853}, "color": "#166534", "value": 104000.0, "level": 1}, "PH137502019": {"id": "PH137502019", "name": "Tinajeros", "city": "CITY OF MALABON", "position": {"lat": 14.673854556333387, "lng": 120.96638737053341}, "color": "#166534", "value": 104000.0, "level": 1}, "PH137502020": {"id": "PH137502020", "name": "Tonsuya", "city": "CITY OF MALABON", "position": {"lat": 14.662549264833387, "lng": 120.96250258700003}, "color": "#166534", "value": 104000.0, "level": 1}, "PH137502021": {"id": "PH137502021", "name": "Tugatog", "city": "CITY OF MALABON", "position": {"lat": 14.664096098650052, "lng": 120.96851008865004}, "color": "#166534", "value": 104000.0, "level": 1}, "PH137503001": {"id": "PH137503001", "name": "Sipac-Almacen", "city": "CITY OF NAVOTAS", "position": {"lat": 14.657042899714332, "lng": 120.94669851385717}, "color": "gray", "value": 0}, "PH137503002": {"id": "PH137503002", "name": "Bagumbayan North", "city": "CITY OF NAVOTAS", "position": {"lat": 14.651912814968798, "lng": 120.94876706912505}, "color": "gray", "value": 0}, "PH137503003": {"id": "PH137503003", "name": "Bagumbayan South", "city": "CITY OF NAVOTAS", "position": {"lat": 14.651441262722276, "lng": 120.9502278018334}, "color": "gray", "value": 0}, "PH137503004": {"id": "PH137503004", "name": "Bangculasi", "city": "CITY OF NAVOTAS", "position": {"lat": 14.648444078310394, "lng": 120.95203721982762}, "color": "gray", "value": 0}, "PH137503005": {"id": "PH137503005", "name": "Daanghari", "city": "CITY OF NAVOTAS", "position": {"lat": 14.66752960302946, "lng": 120.94013355550005}, "color": "gray", "value": 0}, "PH137503006": {"id": "PH137503006", "name": "Navotas East", "city": "CITY OF NAVOTAS", "position": {"lat": 14.654353942818231, "lng": 120.94985916890916}, "color": "gray", "value": 0}, "PH137503007": {"id": "PH137503007", "name": "Navotas West", "city": "CITY OF NAVOTAS", "position": {"lat": 14.654008053304393, "lng": 120.94755820165224}, "color": "gray", "value": 0}, "PH137503008": {"id": "PH137503008", "name": "North Bay Blvd., North", "city": "CITY OF NAVOTAS", "position": {"lat": 14.646577550553241, "lng": 120.94983539551069}, "color": "gray", "value": 0}, "PH137503009": {"id": "PH137503009", "name": "North Bay Blvd., South", "city": "CITY OF NAVOTAS", "position": {"lat": 14.63995847986006, "lng": 120.95593355150005}, "color": "gray", "value": 0}, "PH137503010": {"id": "PH137503010", "name": "San Jose (Pob.)", "city": "CITY OF NAVOTAS", "position": {"lat": 14.662143189132129, "lng": 120.94253624898118}, "color": "gray", "value": 0}, "PH137503011": {"id": "PH137503011", "name": "San Rafael Village", "city": "CITY OF NAVOTAS", "position": {"lat": 14.6391446029546, "lng": 120.9643025654319}, "color": "gray", "value": 0}, "PH137503012": {"id": "PH137503012", "name": "San Roque", "city": "CITY OF NAVOTAS", "position": {"lat": 14.670226364700047, "lng": 120.93839788600003}, "color": "gray", "value": 0}, "PH137503013": {"id": "PH137503013", "name": "Tangos", "city": "CITY OF NAVOTAS", "position": {"lat": 14.672832087057191, "lng": 120.93425373394294}, "color": "gray", "value": 0}, "PH137503014": {"id": "PH137503014", "name": "Tanza", "city": "CITY OF NAVOTAS", "position": {"lat": 14.69178379491144, "lng": 120.92223586164563}, "color": "gray", "value": 0}, "PH137504001": {"id": "PH137504001", "name": "Arkong Bato", "city": "CITY OF VALENZUELA", "position": {"lat": 14.69833834091672, "lng": 120.95291258000005}, "color": "gray", "value": 0}, "PH137504002": {"id": "PH137504002", "name": "Bagbaguin", "city": "CITY OF VALENZUELA", "position": {"lat": 14.71661313586116, "lng": 121.0020326439445}, "color": "gray", "value": 0}, "PH137504003": {"id": "PH137504003", "name": "Balangkas", "city": "CITY OF VALENZUELA", "position": {"lat": 14.717039561840052, "lng": 120.93776451768008}, "color": "gray", "value": 0}, "PH137504004": {"id": "PH137504004", "name": "Parada", "city": "CITY OF VALENZUELA", "position": {"lat": 14.69724999984005, "lng": 120.98854325024004}, "color": "gray", "value": 0}, "PH137504005": {"id": "PH137504005", "name": "Bignay", "city": "CITY OF VALENZUELA", "position": {"lat": 14.745805043115437, "lng": 120.99524194161546}, "color": "#052e16", "value": 50200.0, "level": 0}, "PH137504006": {"id": "PH137504006", "name": "Bisig", "city": "CITY OF VALENZUELA", "position": {"lat": 14.713066505857196, "lng": 120.9463027378572}, "color": "gray", "value": 0}, "PH137504007": {"id": "PH137504007", "name": "Canumay West (Canumay)", "city": "CITY OF VALENZUELA", "position": {"lat": 14.70976737834788, "lng": 120.98269524234786}, "color": "gray", "value": 0}, "PH137504008": {"id": "PH137504008", "name": "Karuhatan", "city": "CITY OF VALENZUELA", "position": {"lat": 14.688625382571471, "lng": 120.97564676671435}, "color": "#166534", "value": 112000.0, "level": 1}, "PH137504009": {"id": "PH137504009", "name": "Coloong", "city": "CITY OF VALENZUELA", "position": {"lat": 14.726250098138943, "lng": 120.94397560080562}, "color": "gray", "value": 0}, "PH137504010": {"id": "PH137504010", "name": "Dalandanan", "city": "CITY OF VALENZUELA", "position": {"lat": 14.704864427758677, "lng": 120.96053527782765}, "color": "#052e16", "value": 61200.0, "level": 0}, "PH137504011": {"id": "PH137504011", "name": "Gen. T. De Leon", "city": "CITY OF VALENZUELA", "position": {"lat": 14.686482150931864, "lng": 120.99226174288646}, "color": "#052e16", "value": 25000.0, "level": 0}, "PH137504012": {"id": "PH137504012", "name": "Isla", "city": "CITY OF VALENZUELA", "position": {"lat": 14.70421901281823, "lng": 120.95175542590918}, "color": "gray", "value": 0}, "PH137504013": {"id": "PH137504013", "name": "Lawang Bato", "city": "CITY OF VALENZUELA", "position": {"lat": 14.731048255837882, "lng": 120.99413925881089}, "color": "gray", "value": 0}, "PH137504014": {"id": "PH137504014", "name": "Lingunan", "city": "CITY OF VALENZUELA", "position": {"lat": 14.71915942464521, "lng": 120.97672170854847}, "color": "gray", "value": 0}, "PH137504015": {"id": "PH137504015", "name": "Mabolo", "city": "CITY OF VALENZUELA", "position": {"lat": 14.710658253000046, "lng": 120.94842071790914}, "color": "gray", "value": 0}, "PH137504016": {"id": "PH137504016", "name": "Malanday", "city": "CITY OF VALENZUELA", "position": {"lat": 14.722583972342909, "lng": 120.95319585445722}, "color": "#166534", "value": 71800.0, "level": 1}, "PH137504017": {"id": "PH137504017", "name": "Malinta", "city": "CITY OF VALENZUELA", "position": {"lat": 14.69012743382932, "lng": 120.96652318468298}, "color": "#166534", "value": 71700.0, "level": 1}, "PH137504018": {"id": "PH137504018", "name": "Mapulang Lupa", "city": "CITY OF VALENZUELA", "position": {"lat": 14.70387748420594, "lng": 121.00435634576479}, "color": "gray", "value": 0}, "PH137504019": {"id": "PH137504019", "name": "Marulas", "city": "CITY OF VALENZUELA", "position": {"lat": 14.677659859039272, "lng": 120.98393252801968}, "color": "#166534", "value": 113000.0, "level": 1}, "PH137504020": {"id": "PH137504020", "name": "Maysan", "city": "CITY OF VALENZUELA", "position": {"lat": 14.701754869947417, "lng": 120.97714154900005}, "color": "gray", "value": 0}, "PH137504021": {"id": "PH137504021", "name": "Palasan", "city": "CITY OF VALENZUELA", "position": {"lat": 14.70439600050006, "lng": 120.94779349008338}, "color": "gray", "value": 0}, "PH137504022": {"id": "PH137504022", "name": "Pariancillo Villa", "city": "CITY OF VALENZUELA", "position": {"lat": 14.708094887833388, "lng": 120.94432194816672}, "color": "gray", "value": 0}, "PH137504023": {"id": "PH137504023", "name": "Paso De Blas", "city": "CITY OF VALENZUELA", "position": {"lat": 14.706844891638942, "lng": 120.99423783836119}, "color": "gray", "value": 0}, "PH137504024": {"id": "PH137504024", "name": "Pasolo", "city": "CITY OF VALENZUELA", "position": {"lat": 14.707171898111161, "lng": 120.9533462255001}, "color": "gray", "value": 0}, "PH137504025": {"id": "PH137504025", "name": "Poblacion", "city": "CITY OF VALENZUELA", "position": {"lat": 14.708726707166713, "lng": 120.94653650583341}, "color": "gray", "value": 0}, "PH137504026": {"id": "PH137504026", "name": "Pulo", "city": "CITY OF VALENZUELA", "position": {"lat": 14.707600119000046, "lng": 120.94775018414293}, "color": "gray", "value": 0}, "PH137504027": {"id": "PH137504027", "name": "Punturin", "city": "CITY OF VALENZUELA", "position": {"lat": 14.738137537333374, "lng": 120.98849398044452}, "color": "gray", "value": 0}, "PH137504028": {"id": "PH137504028", "name": "Rincon", "city": "CITY OF VALENZUELA", "position": {"lat": 14.698034469666725, "lng": 120.95850941380007}, "color": "gray", "value": 0}, "PH137504029": {"id": "PH137504029", "name": "Tagalag", "city": "CITY OF VALENZUELA", "position": {"lat": 14.725369361517291, "lng": 120.9387359926552}, "color": "gray", "value": 0}, "PH137504030": {"id": "PH137504030", "name": "Ugong", "city": "CITY OF VALENZUELA", "position": {"lat": 14.697285918967259, "lng": 121.0139281626722}, "color": "#052e16", "value": 53400.0, "level": 0}, "PH137504031": {"id": "PH137504031", "name": "Viente Reales", "city": "CITY OF VALENZUELA", "position": {"lat": 14.712987684081137, "lng": 120.9684804300271}, "color": "#166534", "value": 78100.0, "level": 1}, "PH137504032": {"id": "PH137504032", "name": "Wawang Pulo", "city": "CITY OF VALENZUELA", "position": {"lat": 14.732608744230815, "lng": 120.92975716315391}, "color": "gray", "value": 0}, "PH137504033": {"id": "PH137504033", "name": "Canumay East (Canumay)", "city": "CITY OF VALENZUELA", "position": {"lat": 14.718782280400053, "lng": 120.99382738425001}, "color": "gray", "value": 0}, "PH137601001": {"id": "PH137601001", "name": "Almanza Uno", "city": "CITY OF LAS PI\u00d1AS", "position": {"lat": 14.41217488470005, "lng": 120.99720915910007}, "color": "gray", "value": 0}, "PH137601002": {"id": "PH137601002", "name": "Daniel Fajardo", "city": "CITY OF LAS PI\u00d1AS", "position": {"lat": 14.480819716210576, "lng": 120.9813894278948}, "color": "gray", "value": 0}, "PH137601003": {"id": "PH137601003", "name": "Elias Aldana", "city": "CITY OF LAS PI\u00d1AS", "position": {"lat": 14.477498603857196, "lng": 120.97576147132148}, "color": "gray", "value": 0}, "PH137601004": {"id": "PH137601004", "name": "Ilaya", "city": "CITY OF LAS PI\u00d1AS", "position": {"lat": 14.47904843593338, "lng": 120.97994208346672}, "color": "gray", "value": 0}, "PH137601005": {"id": "PH137601005", "name": "Manuyo Uno", "city": "CITY OF LAS PI\u00d1AS", "position": {"lat": 14.480332922405456, "lng": 120.9858665614595}, "color": "gray", "value": 0}, "PH137601006": {"id": "PH137601006", "name": "Pamplona Uno", "city": "CITY OF LAS PI\u00d1AS", "position": {"lat": 14.458389191172465, "lng": 120.97183369803453}, "color": "gray", "value": 0}, "PH137601007": {"id": "PH137601007", "name": "Pulang Lupa Uno", "city": "CITY OF LAS PI\u00d1AS", "position": {"lat": 14.4718958731429, "lng": 120.97681596367349}, "color": "gray", "value": 0}, "PH137601008": {"id": "PH137601008", "name": "Talon Uno", "city": "CITY OF LAS PI\u00d1AS", "position": {"lat": 14.417582588884667, "lng": 120.99938116403854}, "color": "gray", "value": 0}, "PH137601009": {"id": "PH137601009", "name": "Zapote", "city": "CITY OF LAS PI\u00d1AS", "position": {"lat": 14.465497501655216, "lng": 120.97321809982763}, "color": "gray", "value": 0}, "PH137601010": {"id": "PH137601010", "name": "Almanza Dos", "city": "CITY OF LAS PI\u00d1AS", "position": {"lat": 14.403042987238146, "lng": 121.00821256023816}, "color": "gray", "value": 0}, "PH137601011": {"id": "PH137601011", "name": "B. F. International Village", "city": "CITY OF LAS PI\u00d1AS", "position": {"lat": 14.451053886318233, "lng": 121.00462427712124}, "color": "gray", "value": 0}, "PH137601012": {"id": "PH137601012", "name": "Manuyo Dos", "city": "CITY OF LAS PI\u00d1AS", "position": {"lat": 14.46948915861368, "lng": 120.99315130952282}, "color": "gray", "value": 0}, "PH137601013": {"id": "PH137601013", "name": "Pamplona Dos", "city": "CITY OF LAS PI\u00d1AS", "position": {"lat": 14.446915627366717, "lng": 120.9766081203334}, "color": "gray", "value": 0}, "PH137601014": {"id": "PH137601014", "name": "Pamplona Tres", "city": "CITY OF LAS PI\u00d1AS", "position": {"lat": 14.45636335868187, "lng": 120.98326405115914}, "color": "gray", "value": 0}, "PH137601015": {"id": "PH137601015", "name": "Pilar", "city": "CITY OF LAS PI\u00d1AS", "position": {"lat": 14.420720641844877, "lng": 121.00690727813797}, "color": "gray", "value": 0}, "PH137601016": {"id": "PH137601016", "name": "Pulang Lupa Dos", "city": "CITY OF LAS PI\u00d1AS", "position": {"lat": 14.462621986309134, "lng": 120.98694586263645}, "color": "gray", "value": 0}, "PH137601017": {"id": "PH137601017", "name": "Talon Dos", "city": "CITY OF LAS PI\u00d1AS", "position": {"lat": 14.436291809804935, "lng": 120.98844213069519}, "color": "gray", "value": 0}, "PH137601018": {"id": "PH137601018", "name": "Talon Tres", "city": "CITY OF LAS PI\u00d1AS", "position": {"lat": 14.445340606673522, "lng": 121.003231557796}, "color": "gray", "value": 0}, "PH137601019": {"id": "PH137601019", "name": "Talon Kuatro", "city": "CITY OF LAS PI\u00d1AS", "position": {"lat": 14.43454676541031, "lng": 120.99927833835899}, "color": "gray", "value": 0}, "PH137601020": {"id": "PH137601020", "name": "Talon Singko", "city": "CITY OF LAS PI\u00d1AS", "position": {"lat": 14.423960353418963, "lng": 120.99854218717576}, "color": "gray", "value": 0}, "PH137602001": {"id": "PH137602001", "name": "Bangkal", "city": "CITY OF MAKATI", "position": {"lat": 14.54412250938894, "lng": 121.0123362410556}, "color": "#16a34a", "value": 133000.0, "level": 2}, "PH137602002": {"id": "PH137602002", "name": "Bel-Air", "city": "CITY OF MAKATI", "position": {"lat": 14.56173042044833, "lng": 121.0287555803794}, "color": "#dc2626", "value": 380000.0, "level": 7}, "PH137602003": {"id": "PH137602003", "name": "Cembo", "city": "CITY OF MAKATI", "position": {"lat": 14.56456461756255, "lng": 121.05068305631255}, "color": "gray", "value": 0}, "PH137602004": {"id": "PH137602004", "name": "Comembo", "city": "CITY OF MAKATI", "position": {"lat": 14.548005647700046, "lng": 121.06396622925008}, "color": "gray", "value": 0}, "PH137602005": {"id": "PH137602005", "name": "Carmona", "city": "CITY OF MAKATI", "position": {"lat": 14.575310520200048, "lng": 121.01873397670006}, "color": "gray", "value": 0}, "PH137602006": {"id": "PH137602006", "name": "Dasmari\u00f1as", "city": "CITY OF MAKATI", "position": {"lat": 14.539500830217442, "lng": 121.0307438041305}, "color": "#dc2626", "value": 381000.0, "level": 7}, "PH137602007": {"id": "PH137602007", "name": "East Rembo", "city": "CITY OF MAKATI", "position": {"lat": 14.553498490115437, "lng": 121.06220013850007}, "color": "#16a34a", "value": 152000.0, "level": 2}, "PH137602008": {"id": "PH137602008", "name": "Forbes Park", "city": "CITY OF MAKATI", "position": {"lat": 14.545888845656304, "lng": 121.03868408271879}, "color": "#f87171", "value": 329000.0, "level": 6}, "PH137602009": {"id": "PH137602009", "name": "Guadalupe Nuevo", "city": "CITY OF MAKATI", "position": {"lat": 14.562656291611168, "lng": 121.04611962005563}, "color": "gray", "value": 0}, "PH137602010": {"id": "PH137602010", "name": "Guadalupe Viejo", "city": "CITY OF MAKATI", "position": {"lat": 14.565042512083389, "lng": 121.04214051883339}, "color": "#991b1b", "value": 393000.0, "level": 8}, "PH137602011": {"id": "PH137602011", "name": "Kasilawan", "city": "CITY OF MAKATI", "position": {"lat": 14.577103145428632, "lng": 121.01591076371434}, "color": "gray", "value": 0}, "PH137602012": {"id": "PH137602012", "name": "La Paz", "city": "CITY OF MAKATI", "position": {"lat": 14.568886748285763, "lng": 121.00985364828576}, "color": "#4ade80", "value": 175000.0, "level": 3}, "PH137602013": {"id": "PH137602013", "name": "Magallanes", "city": "CITY OF MAKATI", "position": {"lat": 14.533028022809576, "lng": 121.01738340395241}, "color": "#fecaca", "value": 297000.0, "level": 5}, "PH137602014": {"id": "PH137602014", "name": "Olympia", "city": "CITY OF MAKATI", "position": {"lat": 14.571704659769278, "lng": 121.02075904800007}, "color": "#4ade80", "value": 197000.0, "level": 3}, "PH137602015": {"id": "PH137602015", "name": "Palanan", "city": "CITY OF MAKATI", "position": {"lat": 14.558998729272771, "lng": 121.0017807373637}, "color": "#bbf7d0", "value": 218000.0, "level": 4}, "PH137602016": {"id": "PH137602016", "name": "Pembo", "city": "CITY OF MAKATI", "position": {"lat": 14.545614178791721, "lng": 121.05876189741674}, "color": "#166534", "value": 77500.0, "level": 1}, "PH137602017": {"id": "PH137602017", "name": "Pinagkaisahan", "city": "CITY OF MAKATI", "position": {"lat": 14.557722473000053, "lng": 121.04092366314293}, "color": "gray", "value": 0}, "PH137602018": {"id": "PH137602018", "name": "Pio Del Pilar", "city": "CITY OF MAKATI", "position": {"lat": 14.551845983736891, "lng": 121.01104908984217}, "color": "gray", "value": 0}, "PH137602019": {"id": "PH137602019", "name": "Pitogo", "city": "CITY OF MAKATI", "position": {"lat": 14.556607928833381, "lng": 121.04544319808339}, "color": "gray", "value": 0}, "PH137602020": {"id": "PH137602020", "name": "Poblacion", "city": "CITY OF MAKATI", "position": {"lat": 14.566272140285767, "lng": 121.03122945838103}, "color": "#fecaca", "value": 277000.0, "level": 5}, "PH137602021": {"id": "PH137602021", "name": "Post Proper Northside", "city": "CITY OF MAKATI", "position": {"lat": 14.55425379968894, "lng": 121.05273548266675}, "color": "gray", "value": 0}, "PH137602023": {"id": "PH137602023", "name": "San Antonio", "city": "CITY OF MAKATI", "position": {"lat": 14.563571155750049, "lng": 121.01214631050004}, "color": "#fecaca", "value": 297000.0, "level": 5}, "PH137602024": {"id": "PH137602024", "name": "San Isidro", "city": "CITY OF MAKATI", "position": {"lat": 14.552946076083378, "lng": 121.00527186466672}, "color": "gray", "value": 0}, "PH137602025": {"id": "PH137602025", "name": "San Lorenzo", "city": "CITY OF MAKATI", "position": {"lat": 14.55335898433338, "lng": 121.01978718833338}, "color": "#f87171", "value": 335000.0, "level": 6}, "PH137602026": {"id": "PH137602026", "name": "Santa Cruz", "city": "CITY OF MAKATI", "position": {"lat": 14.566677513700046, "lng": 121.01759794280005}, "color": "#fecaca", "value": 262000.0, "level": 5}, "PH137602027": {"id": "PH137602027", "name": "Singkamas", "city": "CITY OF MAKATI", "position": {"lat": 14.571655167857184, "lng": 121.0108115501429}, "color": "#4ade80", "value": 191000.0, "level": 3}, "PH137602028": {"id": "PH137602028", "name": "South Cembo", "city": "CITY OF MAKATI", "position": {"lat": 14.559682132263205, "lng": 121.05095374042111}, "color": "#4ade80", "value": 189000.0, "level": 3}, "PH137602029": {"id": "PH137602029", "name": "Tejeros", "city": "CITY OF MAKATI", "position": {"lat": 14.57296783891672, "lng": 121.01410652516672}, "color": "#16a34a", "value": 153000.0, "level": 2}, "PH137602030": {"id": "PH137602030", "name": "Urdaneta", "city": "CITY OF MAKATI", "position": {"lat": 14.555876011250056, "lng": 121.03007534625006}, "color": "#fecaca", "value": 299000.0, "level": 5}, "PH137602031": {"id": "PH137602031", "name": "Valenzuela", "city": "CITY OF MAKATI", "position": {"lat": 14.569929660538513, "lng": 121.02393912453853}, "color": "#16a34a", "value": 152000.0, "level": 2}, "PH137602032": {"id": "PH137602032", "name": "West Rembo", "city": "CITY OF MAKATI", "position": {"lat": 14.55990464968187, "lng": 121.061981447591}, "color": "#bbf7d0", "value": 209000.0, "level": 4}, "PH137602033": {"id": "PH137602033", "name": "Rizal", "city": "CITY OF MAKATI", "position": {"lat": 14.536353133571476, "lng": 121.06138699061913}, "color": "#166534", "value": 71900.0, "level": 1}, "PH137602022": {"id": "PH137602022", "name": "Post Proper Southside", "city": "CITY OF MAKATI", "position": {"lat": 14.54202625022227, "lng": 121.05018544505563}, "color": "gray", "value": 0}, "PH137603001": {"id": "PH137603001", "name": "Alabang", "city": "CITY OF MUNTINLUPA", "position": {"lat": 14.420120591268336, "lng": 121.04421085709762}, "color": "#16a34a", "value": 141000.0, "level": 2}, "PH137603002": {"id": "PH137603002", "name": "Bayanan", "city": "CITY OF MUNTINLUPA", "position": {"lat": 14.408273611518567, "lng": 121.04584169114817}, "color": "gray", "value": 0}, "PH137603003": {"id": "PH137603003", "name": "Buli", "city": "CITY OF MUNTINLUPA", "position": {"lat": 14.443331407615435, "lng": 121.04962877742315}, "color": "gray", "value": 0}, "PH137603004": {"id": "PH137603004", "name": "Cupang", "city": "CITY OF MUNTINLUPA", "position": {"lat": 14.433156303965564, "lng": 121.04222805824143}, "color": "#16a34a", "value": 133000.0, "level": 2}, "PH137603005": {"id": "PH137603005", "name": "Poblacion", "city": "CITY OF MUNTINLUPA", "position": {"lat": 14.383955917862123, "lng": 121.03560859329313}, "color": "#166534", "value": 81900.0, "level": 1}, "PH137603006": {"id": "PH137603006", "name": "Putatan", "city": "CITY OF MUNTINLUPA", "position": {"lat": 14.398769996460047, "lng": 121.03976956332008}, "color": "#052e16", "value": 55000.0, "level": 0}, "PH137603007": {"id": "PH137603007", "name": "Sucat", "city": "CITY OF MUNTINLUPA", "position": {"lat": 14.45426113431919, "lng": 121.0490042834681}, "color": "#052e16", "value": 43200.0, "level": 0}, "PH137603008": {"id": "PH137603008", "name": "Tunasan", "city": "CITY OF MUNTINLUPA", "position": {"lat": 14.371121615737547, "lng": 121.03449325023757}, "color": "#166534", "value": 70800.0, "level": 1}, "PH137603009": {"id": "PH137603009", "name": "New Alabang Village", "city": "CITY OF MUNTINLUPA", "position": {"lat": 14.408502371416716, "lng": 121.02521852386116}, "color": "#bbf7d0", "value": 223000.0, "level": 4}, "PH137604001": {"id": "PH137604001", "name": "Baclaran", "city": "CITY OF PARA\u00d1AQUE", "position": {"lat": 14.527899619233384, "lng": 120.9932325763667}, "color": "#166534", "value": 87500.0, "level": 1}, "PH137604002": {"id": "PH137604002", "name": "Don Galo", "city": "CITY OF PARA\u00d1AQUE", "position": {"lat": 14.50128069885005, "lng": 120.98499311205009}, "color": "#4ade80", "value": 202000.0, "level": 3}, "PH137604003": {"id": "PH137604003", "name": "La Huerta", "city": "CITY OF PARA\u00d1AQUE", "position": {"lat": 14.500480154400043, "lng": 120.98700498640008}, "color": "#052e16", "value": 64800.0, "level": 0}, "PH137604004": {"id": "PH137604004", "name": "San Dionisio", "city": "CITY OF PARA\u00d1AQUE", "position": {"lat": 14.50016790440003, "lng": 120.98647917000005}, "color": "#166534", "value": 105000.0, "level": 1}, "PH137604005": {"id": "PH137604005", "name": "Santo Ni\u00f1o", "city": "CITY OF PARA\u00d1AQUE", "position": {"lat": 14.502921321448323, "lng": 121.00210393929319}, "color": "#052e16", "value": 57700.0, "level": 0}, "PH137604006": {"id": "PH137604006", "name": "Tambo", "city": "CITY OF PARA\u00d1AQUE", "position": {"lat": 14.516351565000052, "lng": 120.99209490727458}, "color": "#4ade80", "value": 202000.0, "level": 3}, "PH137604007": {"id": "PH137604007", "name": "B. F. Homes", "city": "CITY OF PARA\u00d1AQUE", "position": {"lat": 14.453549904711322, "lng": 121.01979517104226}, "color": "#166534", "value": 97100.0, "level": 1}, "PH137604008": {"id": "PH137604008", "name": "Don Bosco", "city": "CITY OF PARA\u00d1AQUE", "position": {"lat": 14.48288322635299, "lng": 121.0251199659486}, "color": "#166534", "value": 95800.0, "level": 1}, "PH137604009": {"id": "PH137604009", "name": "Marcelo Green Village", "city": "CITY OF PARA\u00d1AQUE", "position": {"lat": 14.471453955239488, "lng": 121.03739368366205}, "color": "#052e16", "value": 64900.0, "level": 0}, "PH137604010": {"id": "PH137604010", "name": "Merville", "city": "CITY OF PARA\u00d1AQUE", "position": {"lat": 14.498387008915534, "lng": 121.02376544714089}, "color": "#16a34a", "value": 123000.0, "level": 2}, "PH137604011": {"id": "PH137604011", "name": "Moonwalk", "city": "CITY OF PARA\u00d1AQUE", "position": {"lat": 14.487947690888161, "lng": 121.0090458187344}, "color": "#16a34a", "value": 133000.0, "level": 2}, "PH137604012": {"id": "PH137604012", "name": "San Antonio", "city": "CITY OF PARA\u00d1AQUE", "position": {"lat": 14.466389928157195, "lng": 121.0308679561429}, "color": "#166534", "value": 91700.0, "level": 1}, "PH137604013": {"id": "PH137604013", "name": "San Isidro", "city": "CITY OF PARA\u00d1AQUE", "position": {"lat": 14.467427119968814, "lng": 121.01139390981255}, "color": "#166534", "value": 98300.0, "level": 1}, "PH137604014": {"id": "PH137604014", "name": "San Martin De Porres", "city": "CITY OF PARA\u00d1AQUE", "position": {"lat": 14.481411052313767, "lng": 121.04552117715697}, "color": "#166534", "value": 92000.0, "level": 1}, "PH137604015": {"id": "PH137604015", "name": "Sun Valley", "city": "CITY OF PARA\u00d1AQUE", "position": {"lat": 14.489880754879362, "lng": 121.03229640603456}, "color": "#166534", "value": 98000.0, "level": 1}, "PH137604016": {"id": "PH137604016", "name": "Vitalez", "city": "CITY OF PARA\u00d1AQUE", "position": {"lat": 14.509287239000052, "lng": 121.00611516609094}, "color": "gray", "value": 0}, "PH137606001": {"id": "PH137606001", "name": "Aguho", "city": "PATEROS", "position": {"lat": 14.543381346388937, "lng": 121.06403009238895}, "color": "gray", "value": 0}, "PH137606002": {"id": "PH137606002", "name": "Magtanggol", "city": "PATEROS", "position": {"lat": 14.548303846900051, "lng": 121.07115141470008}, "color": "gray", "value": 0}, "PH137606003": {"id": "PH137606003", "name": "Martires Del 96", "city": "PATEROS", "position": {"lat": 14.539487832363683, "lng": 121.06715692127278}, "color": "gray", "value": 0}, "PH137606004": {"id": "PH137606004", "name": "Poblacion", "city": "PATEROS", "position": {"lat": 14.544933466166697, "lng": 121.06689368050006}, "color": "gray", "value": 0}, "PH137606005": {"id": "PH137606005", "name": "San Pedro", "city": "PATEROS", "position": {"lat": 14.546875945300048, "lng": 121.06755284050004}, "color": "gray", "value": 0}, "PH137606006": {"id": "PH137606006", "name": "San Roque", "city": "PATEROS", "position": {"lat": 14.542391939368468, "lng": 121.06928913142114}, "color": "gray", "value": 0}, "PH137606007": {"id": "PH137606007", "name": "Santa Ana", "city": "PATEROS", "position": {"lat": 14.544489000529461, "lng": 121.0724836455883}, "color": "gray", "value": 0}, "PH137606008": {"id": "PH137606008", "name": "Santo Rosario-Kanluran", "city": "PATEROS", "position": {"lat": 14.551405964500043, "lng": 121.06846041683339}, "color": "gray", "value": 0}, "PH137606009": {"id": "PH137606009", "name": "Santo Rosario-Silangan", "city": "PATEROS", "position": {"lat": 14.549287568545507, "lng": 121.07204672990916}, "color": "gray", "value": 0}, "PH137606010": {"id": "PH137606010", "name": "Tabacalera", "city": "PATEROS", "position": {"lat": 14.549707802700055, "lng": 121.06845026370006}, "color": "gray", "value": 0}, "PH137607001": {"id": "PH137607001", "name": "Tanyag (Bagong Tanyag)", "city": "TAGUIG CITY", "position": {"lat": 14.475396293666714, "lng": 121.04921714500006}, "color": "gray", "value": 0}, "PH137607002": {"id": "PH137607002", "name": "Bagumbayan", "city": "TAGUIG CITY", "position": {"lat": 14.478638747087007, "lng": 121.05588834756527}, "color": "gray", "value": 0}, "PH137607003": {"id": "PH137607003", "name": "Bambang", "city": "TAGUIG CITY", "position": {"lat": 14.524441715187546, "lng": 121.06849037356255}, "color": "#bbf7d0", "value": 248000.0, "level": 4}, "PH137607004": {"id": "PH137607004", "name": "Calzada", "city": "TAGUIG CITY", "position": {"lat": 14.528683909650045, "lng": 121.08384219295007}, "color": "gray", "value": 0}, "PH137607005": {"id": "PH137607005", "name": "Hagonoy", "city": "TAGUIG CITY", "position": {"lat": 14.512148046565263, "lng": 121.07213504760875}, "color": "#052e16", "value": 60800.0, "level": 0}, "PH137607006": {"id": "PH137607006", "name": "Ibayo-Tipas", "city": "TAGUIG CITY", "position": {"lat": 14.542088869166712, "lng": 121.08511569511117}, "color": "gray", "value": 0}, "PH137607007": {"id": "PH137607007", "name": "Ligid-Tipas", "city": "TAGUIG CITY", "position": {"lat": 14.543126181857186, "lng": 121.07957028528578}, "color": "gray", "value": 0}, "PH137607008": {"id": "PH137607008", "name": "Lower Bicutan", "city": "TAGUIG CITY", "position": {"lat": 14.489510190937548, "lng": 121.05834096481254}, "color": "#bbf7d0", "value": 253000.0, "level": 4}, "PH137607009": {"id": "PH137607009", "name": "Maharlika Village", "city": "TAGUIG CITY", "position": {"lat": 14.498157350636415, "lng": 121.05589247318186}, "color": "gray", "value": 0}, "PH137607010": {"id": "PH137607010", "name": "Napindan", "city": "TAGUIG CITY", "position": {"lat": 14.533724206920047, "lng": 121.09745244932009}, "color": "gray", "value": 0}, "PH137607011": {"id": "PH137607011", "name": "Palingon", "city": "TAGUIG CITY", "position": {"lat": 14.52142316933338, "lng": 121.10240483016673}, "color": "gray", "value": 0}, "PH137607012": {"id": "PH137607012", "name": "Santa Ana", "city": "TAGUIG CITY", "position": {"lat": 14.521748558727323, "lng": 121.08213060450008}, "color": "gray", "value": 0}, "PH137607013": {"id": "PH137607013", "name": "Central Signal Village (Signal Village)", "city": "TAGUIG CITY", "position": {"lat": 14.512182229058874, "lng": 121.05498072164713}, "color": "gray", "value": 0}, "PH137607014": {"id": "PH137607014", "name": "Tuktukan", "city": "TAGUIG CITY", "position": {"lat": 14.529682387200042, "lng": 121.0719373441334}, "color": "#166534", "value": 114000.0, "level": 1}, "PH137607015": {"id": "PH137607015", "name": "Upper Bicutan", "city": "TAGUIG CITY", "position": {"lat": 14.499125375727317, "lng": 121.05134104663642}, "color": "gray", "value": 0}, "PH137607016": {"id": "PH137607016", "name": "Ususan", "city": "TAGUIG CITY", "position": {"lat": 14.533268921694495, "lng": 121.06440696100006}, "color": "#bbf7d0", "value": 225000.0, "level": 4}, "PH137607017": {"id": "PH137607017", "name": "Wawa", "city": "TAGUIG CITY", "position": {"lat": 14.517027048000047, "lng": 121.07971278726093}, "color": "gray", "value": 0}, "PH137607018": {"id": "PH137607018", "name": "Western Bicutan", "city": "TAGUIG CITY", "position": {"lat": 14.5185741886487, "lng": 121.0436837880001}, "color": "#bbf7d0", "value": 223000.0, "level": 4}, "PH137607019": {"id": "PH137607019", "name": "Central Bicutan", "city": "TAGUIG CITY", "position": {"lat": 14.491904784000045, "lng": 121.05240733637507}, "color": "gray", "value": 0}, "PH137607021": {"id": "PH137607021", "name": "Katuparan", "city": "TAGUIG CITY", "position": {"lat": 14.51978028493755, "lng": 121.06051669118756}, "color": "gray", "value": 0}, "PH137607022": {"id": "PH137607022", "name": "New Lower Bicutan", "city": "TAGUIG CITY", "position": {"lat": 14.505176384400048, "lng": 121.06305955046673}, "color": "#bbf7d0", "value": 253000.0, "level": 4}, "PH137607023": {"id": "PH137607023", "name": "North Daang Hari", "city": "TAGUIG CITY", "position": {"lat": 14.48520825687504, "lng": 121.04793631125004}, "color": "gray", "value": 0}, "PH137607024": {"id": "PH137607024", "name": "North Signal Village", "city": "TAGUIG CITY", "position": {"lat": 14.51792678613641, "lng": 121.05864847836371}, "color": "gray", "value": 0}, "PH137607025": {"id": "PH137607025", "name": "Pinagsama", "city": "TAGUIG CITY", "position": {"lat": 14.52598762789748, "lng": 121.05193681533339}, "color": "#fecaca", "value": 264000.0, "level": 5}, "PH137607026": {"id": "PH137607026", "name": "San Miguel", "city": "TAGUIG CITY", "position": {"lat": 14.51866747300005, "lng": 121.0701338205001}, "color": "gray", "value": 0}, "PH137607027": {"id": "PH137607027", "name": "South Daang Hari", "city": "TAGUIG CITY", "position": {"lat": 14.469825009875045, "lng": 121.04900415700007}, "color": "gray", "value": 0}, "PH137607028": {"id": "PH137607028", "name": "South Signal Village", "city": "TAGUIG CITY", "position": {"lat": 14.504689982533387, "lng": 121.05598593106676}, "color": "gray", "value": 0}, "PH137607020": {"id": "PH137607020", "name": "Fort Bonifacio", "city": "TAGUIG CITY", "position": {"lat": 14.534802802346203, "lng": 121.03647191711542}, "color": "#bbf7d0", "value": 239000.0, "level": 4}}